"station_id","station_name","ciOrgname","OrgName","Code","Address","Longitude","Latitude","PQ_id","PQ_name","FullName","Description","ciCategory","CategoryInfos_Name","SIUnit"  
"648c0721-9ae3-4a3b-9007-31dd06a5f293","CYC102 朴子市新寮里新寮社區","水利署（與縣市政府合建）","嘉義縣政府水利處","3765000FLCYC102","朴子市新寮里新寮社區","120.24125","23.45013","e600405a-ee81-455e-a057-a10bc3ff0284","淹水深度","CYC102 朴子市新寮里新寮社區淹水深度","CYC102 朴子市新寮里新寮社區淹水深度","淹水感測器","淹水深度","cm"
"b320d298-d3aa-4954-874a-79696f550efa","CYC105 東石鄉西崙村栗仔崙(磚仔窯)","水利署（與縣市政府合建）","嘉義縣政府水利處","3765000FLCYC105","東石鄉西崙村栗仔崙(磚仔窯)","120.188995","23.428696","b510a3d9-0c24-4be2-90bd-4eae47a014d0","淹水深度","CYC105 東石鄉西崙村栗仔崙(磚仔窯)淹水深度","CYC105 東石鄉西崙村栗仔崙(磚仔窯)淹水深度","淹水感測器","淹水深度","cm"
"c7c0c173-be6c-4fd2-b743-921d987e7330","CYC121 太保市埤鄉里埤麻腳社區","水利署（與縣市政府合建）","嘉義縣政府水利處","3765000FLCYC121","太保市埤鄉里埤麻腳社區","120.39255","23.483112","0e4ec2cb-e69a-4d5a-a1a4-54c6bdfad9b2","淹水深度","CYC121 太保市埤鄉里埤麻腳社區淹水深度","CYC121 太保市埤鄉里埤麻腳社區淹水深度","淹水感測器","淹水深度","cm"
"bc5af470-def9-4712-95da-8cc29c35fd60","CYC104 東石鄉鰲鼓村四股社區","水利署（與縣市政府合建）","嘉義縣政府水利處","3765000FLCYC104","東石鄉鰲鼓村四股社區","120.160995","23.508854","2d45b414-d204-4a44-bd01-711356ce7bfe","淹水深度","CYC104 東石鄉鰲鼓村四股社區淹水深度","CYC104 東石鄉鰲鼓村四股社區淹水深度","淹水感測器","淹水深度","cm"
"54c2b021-edc6-418f-bff5-ec96067b24e6","CYC127 水上鄉內溪村民生社區","水利署（與縣市政府合建）","嘉義縣政府水利處","3765000FLCYC127","水上鄉內溪村民生社區","120.43392","23.441912","3c1ec664-a512-43f3-aee7-7703f408144e","淹水深度","CYC127 水上鄉內溪村民生社區淹水深度","CYC127 水上鄉內溪村民生社區淹水深度","淹水感測器","淹水深度","cm"
"d0b10c21-e0e7-40b0-99c7-d2e4fc779beb","CYC110 東石鄉東石村東石市區","水利署（與縣市政府合建）","嘉義縣政府水利處","3765000FLCYC110","東石鄉東石村東石市區","120.14889","23.455063","562740e2-91ce-401c-b9ae-8a0405d33f15","淹水深度","CYC110 東石鄉東石村東石市區淹水深度","CYC110 東石鄉東石村東石市區淹水深度","淹水感測器","淹水深度","cm"
"5b862671-b472-42fa-a450-24fc1a3e3746","CYC117 義竹鄉東光村東後寮","水利署（與縣市政府合建）","嘉義縣政府水利處","3765000FLCYC117","義竹鄉東光村東後寮","120.24806","23.377768","59a3ac7f-764e-4833-8a9e-0e9ab522e626","淹水深度","CYC117 義竹鄉東光村東後寮淹水深度","CYC117 義竹鄉東光村東後寮淹水深度","淹水感測器","淹水深度","cm"
"668ab714-22c6-43fc-9ad3-088f37264784","CYC124 竹崎鄉鹿滿村鹿滿社區","水利署（與縣市政府合建）","嘉義縣政府水利處","3765000FLCYC124","竹崎鄉鹿滿村鹿滿社區","120.540436","23.509172","65674105-a760-449c-8028-ac65f101fbc2","淹水深度","CYC124 竹崎鄉鹿滿村鹿滿社區淹水深度","CYC124 竹崎鄉鹿滿村鹿滿社區淹水深度","淹水感測器","淹水深度","cm"
"45e05be4-f592-44d6-bf7e-dcd74b2c387f","CYC106 東石鄉型厝村","水利署（與縣市政府合建）","嘉義縣政府水利處","3765000FLCYC106","東石鄉型厝村","120.16607","23.476664","85749865-52bf-45fa-958a-f6a9cab3e760","淹水深度","CYC106 東石鄉型厝村淹水深度","CYC106 東石鄉型厝村淹水深度","淹水感測器","淹水深度","cm"
"fd8b8c1b-b4fc-49a2-aac7-55a5136b2c45","CYC111 布袋鎮菜舖里新吉庄社區","水利署（與縣市政府合建）","嘉義縣政府水利處","3765000FLCYC111","布袋鎮菜舖里新吉庄社區","120.21883","23.394852","98b2562d-4b84-497e-b410-5b7916e118e2","淹水深度","CYC111 布袋鎮菜舖里新吉庄社區淹水深度","CYC111 布袋鎮菜舖里新吉庄社區淹水深度","淹水感測器","淹水深度","cm"
"5bec8510-9d72-431b-b8d1-ada0cc037f39","CYC128 水上鄉南和村","水利署（與縣市政府合建）","嘉義縣政府水利處","3765000FLCYC128","水上鄉南和村","120.355064","23.409883","9bb5c2f5-9a0c-474e-be8f-796a7438bea9","淹水深度","CYC128 水上鄉南和村淹水深度","CYC128 水上鄉南和村淹水深度","淹水感測器","淹水深度","cm"
"41a0a42c-81fe-4a6f-8cf7-b15b508539c9","CYC103 東石鄉塭港村塭港社區","水利署（與縣市政府合建）","嘉義縣政府水利處","3765000FLCYC103","東石鄉塭港村塭港社區","120.145546","23.470196","cb660959-71e7-416d-95f5-1958ab1e7a54","淹水深度","CYC103 東石鄉塭港村塭港社區淹水深度","CYC103 東石鄉塭港村塭港社區淹水深度","淹水感測器","淹水深度","cm"
"df929e0f-55ea-4ee1-9610-99fed87e4e54","CYC119 太保市安仁里三塊厝社區","水利署（與縣市政府合建）","嘉義縣政府水利處","3765000FLCYC119","太保市安仁里三塊厝社區","120.310104","23.442822","ea3192ea-f909-4f8e-89bf-b3c42344f049","淹水深度","CYC119 太保市安仁里三塊厝社區淹水深度","CYC119 太保市安仁里三塊厝社區淹水深度","淹水感測器","淹水深度","cm"
"2f552a03-cbaf-4dd1-9c7d-8b1a2440249d","CYC123 太保市港尾里港尾社區","水利署（與縣市政府合建）","嘉義縣政府水利處","3765000FLCYC123","太保市港尾里港尾社區","120.363686","23.46605","ee2340a9-97c2-412e-b8a2-811a91c081d9","淹水深度","CYC123 太保市港尾里港尾社區淹水深度","CYC123 太保市港尾里港尾社區淹水深度","淹水感測器","淹水深度","cm"
"56feb23f-6eb7-4de5-83e3-3d6182f07dca","CYC120 太保市安仁里橋子頭社區","水利署（與縣市政府合建）","嘉義縣政府水利處","3765000FLCYC120","太保市安仁里橋子頭社區","120.315506","23.449703","f5d3dc0d-e075-4e58-b5d6-2993f17c4e20","淹水深度","CYC120 太保市安仁里橋子頭社區淹水深度","CYC120 太保市安仁里橋子頭社區淹水深度","淹水感測器","淹水深度","cm"
"dfac9bea-74a3-44d5-bf1a-ab28c93fe662","CYC115 義竹鄉溪洲村下溪洲社區","水利署（與縣市政府合建）","嘉義縣政府水利處","3765000FLCYC115","義竹鄉溪洲村下溪洲社區","120.24356","23.392666","40ec46c7-fb5b-49e6-beab-79b2601375a6","淹水深度","CYC115 義竹鄉溪洲村下溪洲社區淹水深度","CYC115 義竹鄉溪洲村下溪洲社區淹水深度","淹水感測器","淹水深度","cm"
"8937a6fa-8e81-4723-be6b-7ba70333ad58","CYC129 新港鄉溪北村溪北社區","水利署（與縣市政府合建）","嘉義縣政府水利處","3765000FLCYC129","新港鄉溪北村溪北社區","120.33511","23.511333","57a0ae57-2247-402e-9a26-d5ee3868ccb6","淹水深度","CYC129 新港鄉溪北村溪北社區淹水深度","CYC129 新港鄉溪北村溪北社區淹水深度","淹水感測器","淹水深度","cm"
"c78ded68-7903-4b8c-a8f2-1eb08b811659","介壽路二段596巷","水利署（與縣市政府合建）","桃園巿政府水務局(智慧防汛)","3802500FLF08008","介壽路二段596巷","121.29706","24.94094","582c4aa4-1316-4ae8-9ca1-0f0c2a590b4c","淹水深度","F08-008-介壽路二段596巷-水位","路面淹水站","淹水感測器","淹水深度","cm"
"fefde409-c657-443e-9fb2-53b781f5733f","CYC141 民雄鄉文隆村表藝中心","水利署（與縣市政府合建）","嘉義縣政府水利處","3765000FLCYC141","民雄鄉文隆村表藝中心","120.43306","23.542953","58d00c57-668f-4d58-b787-7fce835f7c93","淹水深度","CYC141 民雄鄉文隆村表藝中心淹水深度","CYC141 民雄鄉文隆村表藝中心淹水深度","淹水感測器","淹水深度","cm"
"04acdd3f-5843-43ea-948c-3ded914792b7","CYC134 民雄鄉東榮村好收排水","水利署（與縣市政府合建）","嘉義縣政府水利處","3765000FLCYC134","民雄鄉東榮村O幹線","120.43753","23.557226","5e7b9ecc-417f-4155-87a3-9a8ff9d00d06","淹水深度","CYC134 民雄鄉東榮村好收排水淹水深度","CYC134 民雄鄉東榮村好收排水淹水深度","淹水感測器","淹水深度","cm"
"ffe7e9f2-1b08-41a4-afde-c57c2718a8a1","新南路一段(南崁交流道下)","水利署（與縣市政府合建）","桃園巿政府水務局(智慧防汛)","3802500FLF05009","","121.29657","25.03972","679e12e9-4340-4faa-8842-85d7518170eb","淹水深度","F05-009 新南路一段(南崁交流道下)","路面水位監測","淹水感測器","淹水深度","cm"
"b1566c4e-190f-452f-9bcb-5a49d1526306","CYC142 大林鎮西結里菜園社區","水利署（與縣市政府合建）","嘉義縣政府水利處","3765000FLCYC142","大林鎮西結里菜園社區","120.41333","23.60327","8ab4678f-f19d-4597-ab2a-3a29fe83b4e9","淹水深度","CYC142 大林鎮西結里菜園社區淹水深度","CYC142 大林鎮西結里菜園社區淹水深度","淹水感測器","淹水深度","cm"
"68f345ba-b7bf-4998-a713-f6984cc4ce2a","CYC138 民雄鄉雙福村雙福社區","水利署（與縣市政府合建）","嘉義縣政府水利處","3765000FLCYC138","民雄鄉雙福村雙福社區","120.44258","23.534315","8efbb912-eebf-46f9-9aee-a97c89417652","淹水深度","CYC138 民雄鄉雙福村雙福社區淹水深度","CYC138 民雄鄉雙福村雙福社區淹水深度","淹水感測器","淹水深度","cm"
"2f344a24-e794-42f2-b3e6-f572cfea9d71","CYC143 大林鎮排路里排子路社區","水利署（與縣市政府合建）","嘉義縣政府水利處","3765000FLCYC143","大林鎮排路里排子路社區","120.42269","23.616407","9649877f-26a5-4490-b564-8e075cb271ca","淹水深度","CYC143 大林鎮排路里排子路社區淹水深度","CYC143 大林鎮排路里排子路社區淹水深度","淹水感測器","淹水深度","cm"
"706d660c-b9c8-4966-8134-52ab6624ea67","CYC135 民雄鄉寮頂村富義新村","水利署（與縣市政府合建）","嘉義縣政府水利處","3765000FLCYC135","民雄鄉寮頂村富義新村","120.43383","23.563532","a9c94823-2100-42a5-9ce2-36fb392f15d4","淹水深度","CYC135 民雄鄉寮頂村富義新村淹水深度","CYC135 民雄鄉寮頂村富義新村淹水深度","淹水感測器","淹水深度","cm"
"1dd98a55-dfa9-417e-a26f-cc996d8d7dc9","CYC145 鹿草鄉竹山村龜佛山社區","水利署（與縣市政府合建）","嘉義縣政府水利處","3765000FLCYC145","鹿草鄉竹山村龜佛山社區","120.27278","23.394882","aeec44f2-2597-4f6b-830a-2512a82a04d2","淹水深度","CYC145 鹿草鄉竹山村龜佛山社區淹水深度","CYC145 鹿草鄉竹山村龜佛山社區淹水深度","淹水感測器","淹水深度","cm"
"26ad1441-b18b-4c3e-8f19-c23d61ae0365","CYC152 大林鎮西結里","水利署（與縣市政府合建）","嘉義縣政府水利處","3765000FLCYC152","大林鎮西結里","120.41687","23.621605","c45e6839-7c20-4d9d-a76b-ec0d7894b1ad","淹水深度","CYC152 大林鎮西結里淹水深度","CYC152 大林鎮西結里淹水深度","淹水感測器","淹水深度","cm"
"f47d3554-679a-4cc9-b58f-338db82e4376","CYC146 鹿草鄉鹿草村鹿草市區","水利署（與縣市政府合建）","嘉義縣政府水利處","3765000FLCYC146","鹿草鄉鹿草村鹿草市區","120.31018","23.412432","f6369228-4640-4475-929f-646077afa7aa","淹水深度","CYC146 鹿草鄉鹿草村鹿草市區淹水深度","CYC146 鹿草鄉鹿草村鹿草市區淹水深度","淹水感測器","淹水深度","cm"
"e0e5edf3-d531-4389-8b1e-a66970490c33","南福街255巷(涵洞內)","水利署（與縣市政府合建）","桃園巿政府水務局(智慧防汛)","3802500FLF05010","","121.29362","25.03571","0c25a8cc-8336-412d-a3e9-093e606fd277","淹水深度","F05-010 南福街255巷(涵洞內)","路面水位監測","淹水感測器","淹水深度","cm"
"2135df8d-5f9c-481b-a7ed-f11f056a33e6","五結鄉利澤西路","水利署（與縣市政府合建）","宜蘭縣政府水利資源處","3764200RV30039","五結鄉利澤西路","121.813866","24.65146","1892379e-b965-45be-bfdc-78ae1c4104f2","淹水深度","water_inner","水位監測","淹水感測器","淹水深度","cm"
"05fd1c53-434b-47a3-a20c-2ed893b35e67","冬山鄉三奇路","水利署（與縣市政府合建）","宜蘭縣政府水利資源處","3764200RV30056","冬山鄉三奇路","121.8153","24.64164","46d0cb8e-4ba1-45dc-8747-936048942027","淹水深度","water_inner","水位監測","淹水感測器","淹水深度","cm"
"1d5dc78d-3ac4-45c1-91da-53edb1cda422","宜蘭市嵐峰路二段20號前","水利署（與縣市政府合建）","宜蘭縣政府水利資源處","3764200RV30065","宜蘭市嵐峰路二段20號前","121.74603","24.742146","5b5d7a18-e558-43b5-9a29-35bbee3d8de9","淹水深度","water_inner","水位監測","淹水感測器","淹水深度","cm"
"1fcb3b42-4218-4b26-9d8e-4d98ccb04fc2","冬山鄉武淵二路","水利署（與縣市政府合建）","宜蘭縣政府水利資源處","3764200RV30055","冬山鄉武淵二路","121.80909","24.671022","628d9d0c-a302-4e96-9695-16e959467da6","淹水深度","water_inner","水位監測","淹水感測器","淹水深度","cm"
"175528d4-1386-4c3a-8f66-1a5ae782200d","冬山鄉九分二路","水利署（與縣市政府合建）","宜蘭縣政府水利資源處","3764200RV30031","冬山鄉九分二路","121.78208","24.664652","6ab7847c-8f69-4a63-b8db-968f8aca98ff","淹水深度","water_inner","水位監測","淹水感測器","淹水深度","cm"
"28ba6529-2e30-42c9-8da2-10654d7aa49b","五結鄉五十二甲橋附近","水利署（與縣市政府合建）","宜蘭縣政府水利資源處","3764200RV30036","五結鄉五十二甲橋附近","121.81855","24.666313","75b6db9c-ac7c-472c-9c00-df8ccc3ab6aa","淹水深度","water_inner","水位監測","淹水感測器","淹水深度","cm"
"2059d889-0077-45a6-9fe0-bdbb5de9edaa","冬山鄉三堵三路","水利署（與縣市政府合建）","宜蘭縣政府水利資源處","3764200RV30048","冬山鄉三堵三路","121.80429","24.656986","76263753-58f5-4bd3-b5ce-4ec52dc758dc","淹水深度","water_inner","水位監測","淹水感測器","淹水深度","cm"
"0a3d60c3-dee5-42fd-9903-049d4c75efb1","冬山鄉東六路(北側溝排水第一段)","水利署（與縣市政府合建）","宜蘭縣政府水利資源處","3764200RV30029","冬山鄉東六路(北側溝排水第一段)","121.8086","24.666449","781dca6c-e1bf-4666-94a9-f0a973f5ab8e","淹水深度","water_inner","水位監測","淹水感測器","淹水深度","cm"
"1bf58413-b2d3-459f-9422-b5e7f8f8021a","壯圍鄉中興二路(美福排水防汛道路新南段)","水利署（與縣市政府合建）","宜蘭縣政府水利資源處","3764200RV30007","壯圍鄉中興二路(美福排水防汛道路新南段)","121.80021","24.725998","865ba0d9-6de9-49f5-88eb-801c9fd35234","淹水深度","water_inner","水位監測","淹水感測器","淹水深度","cm"
"0817c707-8cef-4337-bd75-b6ca4b8f6691","蘇澳鎮區界西路","水利署（與縣市政府合建）","宜蘭縣政府水利資源處","3764200RV30024","蘇澳鎮區界西路","121.82696","24.647745","d6adfd3f-0475-42bb-930a-791cac310343","淹水深度","water_inner","水位監測","淹水感測器","淹水深度","cm"
"152ea41f-b271-4053-af79-926c591986d2","壯圍鄉新社路(宜7)與東西路口","水利署（與縣市政府合建）","宜蘭縣政府水利資源處","3764200RV30002","壯圍鄉新社路(宜7)與東西路口","121.80558","24.784956","ec9ba031-7142-46e5-9966-d0c149d69a3c","淹水深度","water_inner","水位監測","淹水感測器","淹水深度","cm"
"19f6a018-477a-439c-9984-eb9695d2cd1c","五結鄉大眾五路222巷","水利署（與縣市政府合建）","宜蘭縣政府水利資源處","3764200RV30051","五結鄉大眾五路222巷","121.82417","24.699331","edebd0ce-3fa6-4d9f-b906-d50a2337a13e","淹水深度","water_inner","水位監測","淹水感測器","淹水深度","cm"
"4a1ae9db-c1aa-402b-8511-34449f5149e1","冬山鄉三堵二路","水利署（與縣市政府合建）","宜蘭縣政府水利資源處","3764200RV30027","冬山鄉三堵二路","121.80183","24.657438","21b47527-528c-4418-afb6-6238469d80fc","淹水深度","water_inner","水位監測","淹水感測器","淹水深度","cm"
"6ab03245-76ce-40ee-8b37-e72297ec7571","礁溪鄉水鹿咖啡與蘭田民宿附近","水利署（與縣市政府合建）","宜蘭縣政府水利資源處","3764200RV30012","礁溪鄉水鹿咖啡與蘭田民宿附近","121.799805","24.810349","428c048f-878c-447e-907c-e7588181eb5b","淹水深度","water_inner","水位監測","淹水感測器","淹水深度","cm"
"57ecff0f-7a46-447b-8501-93a525bb5f25","富農路三段150巷口","水利署（與縣市政府合建）","宜蘭縣政府水利資源處","3764200RV30079","富農路三段150巷口","121.79891","24.667725","47508c70-835d-42e7-90d7-4b446bc75bd7","淹水深度","water_inner","水位監測","淹水感測器","淹水深度","cm"
"671b9fda-2127-4010-9f46-575831b4b156","冬山鄉幸福六路與珍珠二路口","水利署（與縣市政府合建）","宜蘭縣政府水利資源處","3764200RV30025","冬山鄉幸福六路與珍珠二路口","121.794044","24.65054","497e2c1d-a6ff-40cf-839b-d6ee975bfa08","淹水深度","water_inner","水位監測","淹水感測器","淹水深度","cm"
"59146a36-8183-4dab-a817-8cee9c79d9d6","壯圍鄉永美路二段142巷與古亭排水附近","水利署（與縣市政府合建）","宜蘭縣政府水利資源處","3764200RV30003","壯圍鄉永美路二段142巷與古亭排水附近","121.80047","24.78178","5f7d9f56-5aa1-4d4d-b411-42b6a1788a2f","淹水深度","water_inner","水位監測","淹水感測器","淹水深度","cm"
"6856a9af-0d16-448f-9ed3-16e4e4222d4b","宜蘭市縣民大道二段315巷","水利署（與縣市政府合建）","宜蘭縣政府水利資源處","3764200RV30020","宜蘭市縣民大道二段315巷","121.77377","24.737488","7e20025a-faa3-46d0-8fd5-4b1614458832","淹水深度","water_inner","水位監測","淹水感測器","淹水深度","cm"
"669c45ab-c6d3-454c-96ca-e890a5eca67c","蘇澳鎮蘇花路三段207巷口","水利署（與縣市政府合建）","宜蘭縣政府水利資源處","3764200RV30074","蘇澳鎮蘇花路三段207巷口","121.83291","24.520113","8683a1c2-93f4-4766-8bc8-e66defdb72e4","淹水深度","water_inner","水位監測","淹水感測器","淹水深度","cm"
"44053a5f-f336-4de8-b2b5-51f9bfe046e8","宜蘭市東津路","水利署（與縣市政府合建）","宜蘭縣政府水利資源處","3764200RV30022","宜蘭市東津路","121.77524","24.732595","a39aae1e-392d-4dc9-912f-ce9f65ef9228","淹水深度","water_inner","水位監測","淹水感測器","淹水深度","cm"
"57a97451-01c6-4fec-91a8-12f178f56757","五結鄉公園一路","水利署（與縣市政府合建）","宜蘭縣政府水利資源處","3764200RV30035","五結鄉公園一路","121.82858","24.679495","aeaaad99-934e-42e7-b188-758cecde6d92","淹水深度","water_inner","水位監測","淹水感測器","淹水深度","cm"
"60ad2a2f-1c26-4805-b083-eb5f4eddcfde","宜蘭市宜榮一中排旁","水利署（與縣市政府合建）","宜蘭縣政府水利資源處","3764200RV30041","宜蘭市宜榮一中排旁","121.74127","24.736206","b001a477-c938-42a6-b514-f26c8709bddf","淹水深度","water_inner","水位監測","淹水感測器","淹水深度","cm"
"61c5417c-a9a8-4789-b8db-b2d6e24d4550","蘇澳鎮濱海公路","水利署（與縣市政府合建）","宜蘭縣政府水利資源處","3764200RV30058","蘇澳鎮濱海公路","121.831924","24.63541","b765c578-a766-46ff-a3bb-3b0dae5d4e68","淹水深度","water_inner","水位監測","淹水感測器","淹水深度","cm"
"60edc24e-1951-4706-b9f7-39a3d0636494","羅東鎮新群北路","水利署（與縣市政府合建）","宜蘭縣政府水利資源處","3764200RV30054","羅東鎮新群北路","121.7997","24.67619","b7b883f6-93fc-4da4-b8e4-fa6ff3674c98","淹水深度","water_inner","水位監測","淹水感測器","淹水深度","cm"
"34f14374-2b9c-4325-9ec3-4da1d21d0dcd","五結鄉大眾二路","水利署（與縣市政府合建）","宜蘭縣政府水利資源處","3764200RV30052","五結鄉大眾二路","121.81759","24.695776","c2723edc-7e7f-4ea2-9fc7-72e0544f0fe0","淹水深度","water_inner","水位監測","淹水感測器","淹水深度","cm"
"56bc0302-9336-466c-9289-d4c253d7a649","宜蘭市民權路二段3號旁","水利署（與縣市政府合建）","宜蘭縣政府水利資源處","3764200RV30069","宜蘭市民權路二段3號旁","121.71527","24.753105","c4188fe6-a48e-4b3a-8877-cc20718e93ab","淹水深度","water_inner","水位監測","淹水感測器","淹水深度","cm"
"33025164-9779-402e-8e2d-c9f14a3c075b","羅東鎮中山路一段199巷","水利署（與縣市政府合建）","宜蘭縣政府水利資源處","3764200RV30059","羅東鎮中山路一段199巷","121.7949","24.67008","e35e1821-4a6e-4b85-a811-bd123c47afc8","淹水深度","water_inner","水位監測","淹水感測器","淹水深度","cm"
"623af824-b2c4-4e78-9e7b-3cfd1c36217b","冬山鄉富農路二段","水利署（與縣市政府合建）","宜蘭縣政府水利資源處","3764200RV30049","冬山鄉富農路二段","121.7972","24.655983","e37094f9-abb1-48c8-984b-7ff2d2cd0606","淹水深度","water_inner","水位監測","淹水感測器","淹水深度","cm"
"63ffed9c-b9c6-4b62-bbfa-678557a94e9e","五結鄉大吉五路270巷","水利署（與縣市政府合建）","宜蘭縣政府水利資源處","3764200RV30050","五結鄉大吉五路270巷","121.80198","24.701084","e6f3a87d-5ecc-4608-85ef-2c879e8ebc67","淹水深度","water_inner","水位監測","淹水感測器","淹水深度","cm"
"620cefdb-2876-4ec2-9836-73017babb5a6","壯圍鄉中央路三段(宜9)13股大排終點處","水利署（與縣市政府合建）","宜蘭縣政府水利資源處","3764200RV30004","壯圍鄉中央路三段(宜9)13股大排終點處","121.79394","24.762209","f845000e-6ec8-471f-834a-5c590456636e","淹水深度","water_inner","水位監測","淹水感測器","淹水深度","cm"
"3632fdee-bbee-4e0c-b94f-7603509beb48","壯圍鄉中央路一段385巷151號附近","水利署（與縣市政府合建）","宜蘭縣政府水利資源處","3764200RV30006","壯圍鄉中央路一段385巷151號附近","121.78427","24.729837","fffa0f43-e34c-4de5-aece-2d47c7b2de64","淹水深度","water_inner","水位監測","淹水感測器","淹水深度","cm"
"8f2f56f4-396f-4723-b751-fa28c28d8d14","宜蘭市縣政南路議會旁","水利署（與縣市政府合建）","宜蘭縣政府水利資源處","3764200RV30070","宜蘭市縣政南路議會旁","121.76543","24.729322","0d3153d1-d36e-4137-ae44-180b9ae4a6ae","淹水深度","water_inner","水位監測","淹水感測器","淹水深度","cm"
"720c2f5f-111a-4cfb-9607-7d3c8fe28992","冬山鄉茄苳路","水利署（與縣市政府合建）","宜蘭縣政府水利資源處","3764200RV30026","冬山鄉茄苳路","121.79957","24.65861","12a4c277-7ef3-4f1c-bb58-6d650545a8b2","淹水深度","water_inner","水位監測","淹水感測器","淹水深度","cm"
"ae485e5b-121d-4171-9ec6-46bd55f50022","三星鄉三星路二段265巷","水利署（與縣市政府合建）","宜蘭縣政府水利資源處","3764200RV30063","三星鄉三星路二段265巷","121.70313","24.66571","2c97c858-3cd3-4eab-bf19-ac1bea5f1be2","淹水深度","water_inner","水位監測","淹水感測器","淹水深度","cm"
"74db1d6b-356f-4abf-8c7f-2f09d6e20cd2","宜蘭市梅洲抽水站","水利署（與縣市政府合建）","宜蘭縣政府水利資源處","3764200RV30040","宜蘭市梅洲抽水站","121.75028","24.76555","3774deee-6da2-4862-829a-e3a4b5e2b81a","淹水深度","water_inner","水位監測","淹水感測器","淹水深度","cm"
"94b03538-d0ab-4efb-ad67-9e545a84615b","蘇澳鎮華山路與南興路口","水利署（與縣市政府合建）","宜蘭縣政府水利資源處","3764200RV30073","蘇澳鎮華山路與南興路口","121.8673","24.580557","3f7686b9-13bc-4d39-b9a1-779fb69a78cf","淹水深度","water_inner","水位監測","淹水感測器","淹水深度","cm"
"89f33d1d-be07-4783-8410-b2621c75df87","礁溪鄉瑪僯路59-25號附近","水利署（與縣市政府合建）","宜蘭縣政府水利資源處","3764200RV30013","礁溪鄉瑪僯路59-25號附近","121.772804","24.800459","442c66bb-7b46-4682-8d33-4d97f280905c","淹水深度","water_inner","水位監測","淹水感測器","淹水深度","cm"
"99376523-3082-4293-b600-0083d9a5d275","五結鄉錦草路","水利署（與縣市政府合建）","宜蘭縣政府水利資源處","3764200RV30032","五結鄉錦草路","121.82082","24.707184","4e3a8e3c-afcb-40ee-b47f-2fc51e52523a","淹水深度","water_inner","水位監測","淹水感測器","淹水深度","cm"
"adc81d07-d88e-4d4f-9300-2f391cf78c29","宜蘭市大福路鐵路箱涵","水利署（與縣市政府合建）","宜蘭縣政府水利資源處","3764200RV30078","宜蘭市大福路鐵路箱涵","121.76192","24.764156","6a11fa3d-6556-4047-ae18-55c53afcc47e","淹水深度","water_inner","水位監測","淹水感測器","淹水深度","cm"
"8d34cdc2-1b94-4e1b-adfd-62e673931344","壯圍鄉壯濱路一段2巷","水利署（與縣市政府合建）","宜蘭縣政府水利資源處","3764200RV30077","壯圍鄉壯濱路一段2巷","121.82522","24.719793","7ad643eb-e0fc-472b-b6c9-cbb4be9f0695","淹水深度","water_inner","水位監測","淹水感測器","淹水深度","cm"
"836538e4-d727-4fec-ab2b-20307ed61ab5","礁溪鄉淇武蘭路168-5號","水利署（與縣市政府合建）","宜蘭縣政府水利資源處","3764200RV30042","礁溪鄉淇武蘭路168-5號","121.794525","24.808588","7b203920-80d0-4aa6-a459-a596544e15d7","淹水深度","water_inner","水位監測","淹水感測器","淹水深度","cm"
"a1f2a7e5-e117-4963-9e5d-7302bd1245f2","冬山鄉富堵五路","水利署（與縣市政府合建）","宜蘭縣政府水利資源處","3764200RV30047","冬山鄉富堵五路","121.80439","24.660378","9ccbe60c-9ad2-4738-8bca-285afd3f6e21","淹水深度","water_inner","水位監測","淹水感測器","淹水深度","cm"
"ac4e748f-5c71-4381-9a49-08f153fd55e1","蘇澳鎮福德路","水利署（與縣市政府合建）","宜蘭縣政府水利資源處","3764200RV30057","蘇澳鎮福德路","121.830925","24.641415","a48de841-a37b-4168-a197-85103702095e","淹水深度","water_inner","水位監測","淹水感測器","淹水深度","cm"
"6dbca568-a5f9-4b15-a32e-fb35c797ae7f","冬山鄉冬山路三段320巷鐵路箱涵","水利署（與縣市政府合建）","宜蘭縣政府水利資源處","3764200RV30043","冬山鄉公園路一段","121.77733","24.630514","a6f285a7-1ab8-4675-91e2-2f4c9b488f58","淹水深度","water_inner","水位監測","淹水感測器","淹水深度","cm"
"745106e2-d001-425e-9de4-fb5e9a5b6505","梅林路","水利署（與縣市政府合建）","宜蘭縣政府水利資源處","3764200RV30062","梅林路","121.75312","24.64087","a90d88ab-e7be-406f-a34b-840d1d73c357","淹水深度","water_inner","水位監測","淹水感測器","淹水深度","cm"
"b8124da6-7212-46a2-979d-41f8ce97d698","五結鄉大吉一路","水利署（與縣市政府合建）","宜蘭縣政府水利資源處","3764200RV30034","五結鄉大吉一路","121.803795","24.69983","d9fbbf64-1ca2-45b1-8dbf-70b990f0422c","淹水深度","water_inner","水位監測","淹水感測器","淹水深度","cm"
"78d618d9-de68-4140-be40-e8e3eb333d64","礁溪鄉玉龍路二段與砂港路口","水利署（與縣市政府合建）","宜蘭縣政府水利資源處","3764200RV30010","礁溪鄉玉龍路二段與砂港路口","121.79941","24.82673","e4c20c44-8efc-43b7-804c-33012c9dc273","淹水深度","water_inner","水位監測","淹水感測器","淹水深度","cm"
"6ea4b801-4bc7-49dc-9e07-0aa7fa73b93d","冬山鄉武淵一路","水利署（與縣市政府合建）","宜蘭縣政府水利資源處","3764200RV30030","冬山鄉武淵一路","121.80538","24.66867","e9e363dc-0e1c-4079-a5eb-ac557b6a7b4b","淹水深度","water_inner","水位監測","淹水感測器","淹水深度","cm"
"886fa7ac-41d9-4a97-9463-ae7d117bc570","羅東鎮富農路三段150巷","水利署（與縣市政府合建）","宜蘭縣政府水利資源處","3764200RV30046","羅東鎮富農路三段150巷","121.800354","24.667213","f72741e9-9573-4edd-ac33-0bb1b1acda98","淹水深度","water_inner","水位監測","淹水感測器","淹水深度","cm"
"aa36118d-294a-4a6f-b3da-0c40357af49b","五結鄉利澤西路27巷","水利署（與縣市政府合建）","宜蘭縣政府水利資源處","3764200FL30038","五結鄉利澤西路27巷","121.81649","24.656744","fd9e5e3a-20c5-4bf0-aaf8-bdc3a7115ccb","淹水深度","water_inner","水位監測","淹水感測器","淹水深度","cm"
"e801aee1-682f-4455-8952-4aa9795bb713","七股區-城內站(編號89)","水利署（與縣市政府合建）","臺南市政府水利局","3952500FLTN237","城內里南26-1鄉道","120.13621","23.179173","0dd0a109-2c90-4839-b787-1530436e0aba","淹水深度","七股區-城內站(編號89)","TNWG006","淹水感測器","淹水深度","cm"
"ef50408b-987e-4599-91d3-1e82b5117383","宜蘭市復興路二段49號前","水利署（與縣市政府合建）","宜蘭縣政府水利資源處","3764200RV30066","宜蘭市復興路二段49號前","121.74839","24.74876","17d00054-8944-4a03-afc6-44bcf4a8260e","淹水深度","water_inner","水位監測","淹水感測器","淹水深度","cm"
"fd216278-c3e6-4e08-a98d-6bf2515804ab","宜蘭市南橋三路","水利署（與縣市政府合建）","宜蘭縣政府水利資源處","3764200RV30023","宜蘭市南橋三路","121.74038","24.732943","264d19a4-ddbc-4045-9522-dc11621a07c9","淹水深度","water_inner","水位監測","淹水感測器","淹水深度","cm"
"dd3f7fa3-9668-4351-96f0-2622ae826030","員山鄉船仔頭橋","水利署（與縣市政府合建）","宜蘭縣政府水利資源處","3764200RV30016","員山鄉船仔頭橋","121.695244","24.745798","4e8b1fc0-bb51-4e0b-97a1-34730ee269c3","淹水深度","water_inner","水位監測","淹水感測器","淹水深度","cm"
"9db38e22-544b-41df-89b1-42cab700aaad","七股區-南176線84號前(編號86)","水利署（與縣市政府合建）","臺南市政府水利局","3952500FLTN084","南176線大寮段","120.15031","23.14909","551d3c44-3832-40fb-bd06-7dfbaaf61de1","淹水深度","七股區-南176線84號前(編號86)","TNWG003","淹水感測器","","cm"
"dee7a6cc-b000-46f9-8181-b7e9a48251d8","蘇澳鎮中原路冷泉停車場旁","水利署（與縣市政府合建）","宜蘭縣政府水利資源處","3764200RV30072","蘇澳鎮中原路冷泉停車場旁","121.849594","24.599375","5a013299-b4ad-47ce-8c70-42a5ac44fcb6","淹水深度","water_inner","水位監測","淹水感測器","淹水深度","cm"
"c32eea42-7153-429e-8867-d04ef0cbb1be","七股區-南31-1線與臺17線口(編號85)","水利署（與縣市政府合建）","臺南市政府水利局","3952500FLTN083","南31線臺17線往溪南里","120.13267","23.129053","68d2f4a4-8dc2-4ca8-b50c-ff2f6dc55492","淹水深度","七股區-南31-1線與臺17線口(編號85)","TNWG002","淹水感測器","","cm"
"dce1a787-73d1-434a-904d-103596a0f001","宜蘭市女中路二段地下道東側","水利署（與縣市政府合建）","宜蘭縣政府水利資源處","3764200RV30068","宜蘭市女中路二段地下道東側","121.75768","24.74692","7046b6b8-aef7-4649-964e-74258ed24b52","淹水深度","water_inner","水位監測","淹水感測器","淹水深度","cm"
"daab1ea7-c81e-4eb4-b982-8bee150f47dc","五結鄉五福橋","水利署（與縣市政府合建）","宜蘭縣政府水利資源處","3764200RV30037","五結鄉五福橋","121.81914","24.661043","8665c08d-dd21-45e1-bcb1-9426ada3aab3","淹水深度","water_inner","水位監測","淹水感測器","淹水深度","cm"
"3828391f-75a6-4e86-bcb8-3ad99571dda2","七股區-西寮聚落(編號91)","水利署（與縣市政府合建）","臺南市政府水利局","3952500FLTN089","西寮聚落","120.09582","23.17042","876ae2f4-4772-4981-97a2-4bd31e265743","淹水深度","七股區-西寮聚落(編號91)","TNWG008","淹水感測器","","cm"
"de0a2338-d140-4a18-8bb2-036b6ad8880f","壯圍鄉中興三路","水利署（與縣市政府合建）","宜蘭縣政府水利資源處","3764200RV30008","壯圍鄉中興三路","121.79519","24.729776","8981f12a-e638-4b4f-a4f4-e935614a0c6e","淹水深度","water_inner","水位監測","淹水感測器","淹水深度","cm"
"bed35c13-ffec-4735-9ae5-9fe13e641c3d","五結鄉大興路","水利署（與縣市政府合建）","宜蘭縣政府水利資源處","3764200RV30060","五結鄉大興路","121.78156","24.6904","92c3e790-78d8-4cf6-9f1e-7e5fb6e77450","淹水深度","water_inner","水位監測","淹水感測器","淹水深度","cm"
"eedee7e6-e6dc-4099-a2d4-ed58c3496a2f","北成社區活動中心","水利署（與縣市政府合建）","宜蘭縣政府水利資源處","3764200RV30080","北成社區活動中心","121.75265","24.678738","9ca3e260-fc0d-4ca3-9a57-65e58848e37e","淹水深度","water_inner","水位監測","淹水感測器","淹水深度","cm"
"e401bbfd-50ec-4ff7-b09b-4130a7ddabfe","五結鄉錦草中路","水利署（與縣市政府合建）","宜蘭縣政府水利資源處","3764200RV30033","五結鄉錦草中路","121.81268","24.704332","a787c0f7-dd29-43c3-8c14-228a61544e7c","淹水深度","water_inner","水位監測","淹水感測器","淹水深度","cm"
"c10dae21-345f-46c5-a330-9135bb82be9d","員山鄉溪洲排水左岸處","水利署（與縣市政府合建）","宜蘭縣政府水利資源處","3764200FL30018","員山鄉溪洲排水左岸處","121.81896","24.739832","ce8edaa4-c087-44c2-b85e-6bc5c91bc53b","淹水深度","water_inner","水位監測","淹水感測器","淹水深度","cm"
"d1324e0e-2478-4d04-930b-62cffe148d27","蘇澳鎮港邊路301號旁","水利署（與縣市政府合建）","宜蘭縣政府水利資源處","3764200RV30076","蘇澳鎮港邊路301號旁","121.859314","24.610344","d59d720f-094f-40e5-a66f-b30a66a3a9d1","淹水深度","water_inner","水位監測","淹水感測器","淹水深度","cm"
"c12afb8c-4ecc-43fe-aa80-3e67f5ca87c2","蘇澳鎮泉興巷涵洞（原71改點）","水利署（與縣市政府合建）","宜蘭縣政府水利資源處","3764200RV30071","蘇澳鎮泉興巷涵洞（原71改點）","121.8481","24.594795","de4bb640-f5bc-4ee7-b7ad-a887c3a33b37","淹水深度","water_inner","水位監測","淹水感測器","淹水深度","cm"
"d7c6c442-2d52-4134-b215-40464b8b2239","宜蘭市神農路一段(全家旁)","水利署（與縣市政府合建）","宜蘭縣政府水利資源處","3764200RV30067","宜蘭市神農路一段(全家旁)","121.74941","24.74689","e331550c-d180-4376-9991-f8ad38a52094","淹水深度","water_inner","水位監測","淹水感測器","淹水深度","cm"
"f7787713-a6e7-4ab2-85e4-4a7c06fea968","羅東高工","水利署（與縣市政府合建）","宜蘭縣政府水利資源處","3764200RV30061","羅東高工","121.75107","24.670488","fc4c7a4c-0f70-4ed0-8499-413cd47225a1","淹水深度","water_inner","水位監測","淹水感測器","淹水深度","cm"
"a5a3f5c5-b16a-4e07-bf93-f8141a66e869","七股區-頂山站(編號64)","水利署（與縣市政府合建）","臺南市政府水利局","TNIOT064","頂山里頂山代天府","120.11167","23.182163","315eb909-306d-48ed-b7e8-e18e1cebc696","淹水深度","七股區-頂山站(編號64)","TNIOT064","淹水感測器","淹水深度","cm"
"a45d947b-3799-47ca-8409-57ac20dabceb","七堵區友一里崇禮街七堵地下道","水利署（與縣市政府合建）","基隆市政府水利科","3765700FL0025","","121.66936","25.09413","337bc428-d2c9-4eb7-9059-27837b0c6ab3","淹水深度","七堵區友一里崇禮街七堵地下道淹水深度","淹水高度量測(高度0時每3HR回傳>5-30_cm每10MIN回傳<30cm每5MIN回傳)","淹水感測器","淹水深度","cm"
"e1ca7b39-b1f2-4c51-9ba6-cbcf49302c97","七堵區永安里明德一路295號","水利署（與縣市政府合建）","基隆市政府水利科","3765700FL0045","","121.71061","25.09328","36c254fc-3ef2-4177-af93-c2bad300e18d","淹水深度","七堵區永安里明德一路295號淹水深度","淹水高度量測(高度0時每3HR回傳>5-30_cm每10MIN回傳<30cm每5MIN回傳)","淹水感測器","淹水深度","cm"
"c164f5ce-208d-40d3-b09b-116cbfb7d153","七股區-樹林社區活動中心(編號75)","水利署（與縣市政府合建）","臺南市政府水利局","TNIOT075","七股區樹林社區活動中心","120.156715","23.11416","4bbfec5b-3427-4948-8d69-1ded389fb566","淹水深度","七股區-樹林社區活動中心(編號75)","TNIOT075","淹水感測器","淹水深度","cm"
"a14bcb3e-7409-4996-9bf7-01c908791ae5","七股區-龍山里活動中心旁電杆(編號246)","水利署（與縣市政府合建）","臺南市政府水利局","3952500FLTN1096","龍山里活動中心旁電杆","120.11485","23.137499","4c45efa1-e499-4a87-92fa-9d4c876c12be","淹水深度","七股區-龍山里活動中心旁電杆(編號246)","TSIOT013","淹水感測器","淹水深度","cm"
"7f004ea1-a925-4b87-b4ab-066f8ed4c6bf","七股區-溪南活動中心(編號84)","水利署（與縣市政府合建）","臺南市政府水利局","3952500FLTN082","溪南活動中心附近","120.1198","23.12795","5ee3832a-81e0-4d40-94c1-6a2959badfb6","淹水深度","七股區-溪南活動中心(編號84)","TNWG001","淹水感測器","","cm"
"d22e99ef-3c25-4ae0-9aa6-a2319aad16aa","七堵區堵南里堵南街105號","水利署（與縣市政府合建）","基隆市政府水利科","3765700FL0029","","121.68276","25.081923","78af7fdd-058d-41db-a39c-81577ffdc23e","淹水深度","七堵區堵南里堵南街105號淹水深度","淹水高度量測(高度0時每3HR回傳>5-30_cm每10MIN回傳<30cm每5MIN回傳)","淹水感測器","淹水深度","cm"
"85e70cd8-8809-4e3a-b0f8-d91826431437","七賢三路250號前","水利署（與縣市政府合建）","高雄市政府水利局","3972500RV1058","七賢三路250號前","120.284515","22.630253","8157b65e-0863-43e7-95db-f4894e14ea4a","淹水深度","七賢三路250號前","七賢三路250號前","淹水感測器","淹水深度","cm"
"982625a5-6c9a-4c0e-9e30-ea2c2f778582","七堵區瑪南里大華二路142號","水利署（與縣市政府合建）","基隆市政府水利科","3765700FL0021","","121.69153","25.109333","8ab7b693-7cd8-4edb-8454-634c107bf83e","淹水深度","七堵區瑪南里大華二路142號淹水深度","淹水高度量測(高度0時每3HR回傳>5-30_cm每10MIN回傳<30cm每5MIN回傳)","淹水感測器","淹水深度","cm"
"94e90aef-299c-45bd-86c0-5bec32a43b68","七股區-龍德宮旁(編號87)","水利署（與縣市政府合建）","臺南市政府水利局","3952500FLTN085","三股里龍德宮","120.118195","23.099125","94752ea0-13ec-4c02-abbc-7522c0ae7d6e","淹水深度","七股區-龍德宮旁(編號87)","TNWG004","淹水感測器","","cm"
"fa08ad7e-bfc9-4929-9dec-89463aa45190","七堵區堵南里堵南1-1 車行地下道","水利署（與縣市政府合建）","基隆市政府水利科","3765700FL0024","","121.68447","25.08038","9de4d081-a051-4c4d-9035-29145794104a","淹水深度","七堵區堵南里堵南1-1 車行地下道淹水深度","淹水高度量測(高度0時每3HR回傳>5-30_cm每10MIN回傳<30cm每5MIN回傳)","淹水感測器","淹水深度","cm"
"7d620cc9-211b-4434-8e43-6d371ab3d911","八里區龍米路2段168號","水利署（與縣市政府合建）","新北市政府水利局(智慧防汛)","3822500FL0059","249新北市八里區龍米路2段168號","121.434814","25.158096","17d5b558-de5d-4cfb-99a0-6bc580511543","淹水深度","八里區龍米路2段168號","淹水高度量測","淹水感測器","淹水深度","cm"
"2b442909-0c8b-4f12-9d69-6cc7e9850291","八里區中華路二段266號","水利署（與縣市政府合建）","新北市政府水利局(智慧防汛)","3822500FL0101","八里區中華路二段201號","121.40517","25.149311","519fb2eb-9d14-4aa6-a664-8154dfe151bd","淹水深度","八里區中華路二段201號淹水高度","淹水高度量測(高度<5cm 每1小時回傳;5<高度<30cm 每10分鐘回傳;30cm<高度 每5分鐘回傳)","淹水感測器","","cm"
"5382fea7-c5c7-4701-b198-706f80a2ed26","八里區舊城路12號","水利署（與縣市政府合建）","新北市政府水利局(智慧防汛)","3822500FL0043","249新北市八里區舊城路12號","121.40018","25.14646","e62d0dea-bf5a-48b5-ae9f-fa9356c8ab97","淹水深度","八里區舊城路12號","淹水高度量測","淹水感測器","淹水深度","cm"
"d20df041-9041-4570-9f33-0c4b79029dcc","十全一路與自由一路口","水利署（與縣市政府合建）","高雄市政府水利局","3972500FL0001","三民區十全一路與自由一路口","120.30894","22.644947","c1192b90-12d4-4ef5-93b9-dc4adb306e75","淹水深度","十全一路與自由一路口_淹水感測器","路面淹水水深量測，作為積淹水警戒","淹水感測器","淹水深度","cm"
"80451de1-f0e6-4c48-8b1f-9ef78b84eda8","三元街自強公園","水利署（與縣市政府合建）","桃園巿政府水務局(智慧防汛)","3802500FL1217005","","121.31711","25.001238","ec6183e6-d9e5-4ee4-981a-d1d1c82f4787","淹水深度","三元街自強公園-F01-005-水位","路面淹水站","淹水感測器","淹水深度","cm"
"7d6cf1ac-b7f5-4f86-bb6a-b576a6ffbead","三重區五華街186號","水利署（與縣市政府合建）","新北市政府水利局(智慧防汛)","3822500FL0104","三重區五華街186號","121.48873","25.086473","14b6dc20-6d03-4508-8ef4-993b80fe557a","淹水深度","三重區五華街186號淹水高度","淹水高度量測(高度<5cm 每1小時回傳;5<高度<30cm 每10分鐘回傳;30cm<高度 每5分鐘回傳)","淹水感測器","","cm"
"17abb915-5868-4ad2-8856-702bd7eedf94","三重區三和路4段145巷88號前","水利署（與縣市政府合建）","新北市政府水利局(智慧防汛)","3822500FL0037","北市三重區三和路4段145巷88號前","121.48634","25.07882","185a07d0-da6f-4656-b9cc-b3f052e996d8","淹水深度","三重區三和路4段145巷88號前","淹水高度量測","淹水感測器","淹水深度","cm"
"7163d538-c6a4-47ab-bdc1-6da4c20db93b","三重區五華街及集賢路路口","水利署（與縣市政府合建）","新北市政府水利局(智慧防汛)","3822500FL0026","241新北市三重區五華街及集賢路路口","121.48601","25.089","2a513157-4708-478d-a314-ee603e553b41","淹水深度","三重區五華街及集賢路路口","淹水高度量測","淹水感測器","淹水深度","cm"
"49068a26-d76f-4ef4-b898-66bd3440ab25","三重區中正北路508巷51號","水利署（與縣市政府合建）","新北市政府水利局(智慧防汛)","3822500FL0105","三重區中正北路508巷51號","121.472595","25.070162","40d95521-8fa0-4864-8cfa-a9063b7aff9d","淹水深度","三重區中正北路508巷51號淹水高度","淹水高度量測(高度<5cm 每1小時回傳;5<高度<30cm 每10分鐘回傳;30cm<高度 每5分鐘回傳)","淹水感測器","","cm"
"28791d8a-f3a1-4ed1-ab91-1a285f40a7d3","三重區光復路一段12號(捷運先嗇宮站)","水利署（與縣市政府合建）","新北市政府水利局(智慧防汛)","3822500FL0020","241新北市三重區光復路一段12號前(捷運先嗇宮站)","121.47181","25.046865","928bdb08-358d-4444-8ab0-c29d99284cc0","淹水深度","三重區光復路一段12號(捷運先嗇宮站)","淹水高度量測","淹水感測器","淹水深度","cm"
"d577423a-6e8d-4028-ab33-f9ef03783e72","三重區中正北路508巷5號","水利署（與縣市政府合建）","新北市政府水利局(智慧防汛)","3822500FL0035","241新北市三重區中正北路508巷5號前","121.47256","25.071356","a46cc2ab-f8e4-45c5-bda9-622903ef1a01","淹水深度","三重區中正北路508巷5號","淹水高度量測","淹水感測器","淹水深度","cm"
"9661de1a-e44b-4b96-8939-63367d0c7ccc","三多商圈","水利署（與縣市政府合建）","高雄市政府水利局","3972500FL0022","前鎮區三多商圈","120.307014","22.614555","ce827ed7-5ae9-451c-908c-1c532637a9ed","淹水深度","三多商圈_淹水感測器","路面淹水水深量測，作為積淹水警戒","淹水感測器","淹水深度","cm"
"fda1b67b-74ab-493c-a4bb-f9fa31f1af47","三重區正義北路122號","水利署（與縣市政府合建）","新北市政府水利局(智慧防汛)","3822500FL0032","241新北市三重區正義北路122號","121.49695","25.065475","feb2ec11-5d2e-4d1d-a9e3-fcc42a29585b","淹水深度","三重區正義北路122號","淹水高度量測","淹水感測器","淹水深度","cm"
"d20a99bb-a003-4862-9a6b-c6e99904173a","三盛村_嘉晉工程","水利署（與縣市政府合建）","雲林縣政府水利處","3764900FL108YL59","雲林縣麥寮鄉，橋頭排水線","120.26123","23.794163","11e9fd02-90fa-4680-bd0d-56871ccf991c","傳輸訊號強度","三盛村_嘉晉工程_訊號強度","記錄傳輸紀錄器通訊訊號強度","淹水感測器","其他","dBm"
"4dac3e88-3798-430a-9008-b930998b54e5","三義鄉站南地下道","水利署（與縣市政府合建）","苗栗縣政府水利處","3764500RVFL00027","苗栗縣三義鄉湖村站南地下道","120.77378","24.417822","1d9487ef-bac3-4d3e-80bb-f68237af57a5","淹水深度","三義鄉站南地下道淹水高度","淹水高度量測(高度<5cm;每1小時回傳;5<高度<30cm;每10分鐘回傳;30cm<高度;每5分鐘回傳)","淹水感測器","淹水深度","cm"
"0f66a386-cb53-42f1-920a-40d651601a2b","三陽路與高平路口","水利署（與縣市政府合建）","桃園巿政府水務局(智慧防汛)","3802500FL1217087","","121.14025","24.93666","4dff5d40-0f98-4466-a31b-22902815d647","淹水深度","三陽路與高平路口-F04-701-水位","路面淹水站","淹水感測器","淹水深度","cm"
"04d211c0-49e2-404d-a302-36aacabe6e65","三峽區大義路189號","水利署（與縣市政府合建）","新北市政府水利局(智慧防汛)","3822500FL0002","237新北市三峽區大義路189號","121.37802","24.945719","76545cac-901d-4071-8246-85dbc13da17b","淹水深度","三峽區大義路189號","淹水高度量測","淹水感測器","淹水深度","cm"
"fd93bb13-41ed-4fff-a420-1c73c09de5ab","三峽區秀川街28號","水利署（與縣市政府合建）","新北市政府水利局(智慧防汛)","3822500FL0048","237新北市三峽區秀川街28號","121.37178","24.934187","7ad3d599-ad40-4a36-b50e-9dd35928e04b","淹水深度","三峽區秀川街28號","淹水高度量測","淹水感測器","淹水深度","cm"
"d20a99bb-a003-4862-9a6b-c6e99904173a","三盛村_嘉晉工程","水利署（與縣市政府合建）","雲林縣政府水利處","3764900FL108YL59","雲林縣麥寮鄉，橋頭排水線","120.26123","23.794163","a82bfcab-de65-44f7-aa74-093dccb92551","淹水深度","三盛村_嘉晉工程_淹水深度","定點量測路面淹水深度","淹水感測器","淹水深度","cm"
"40ed6d22-b412-4f36-a9b5-3af8304937a1","三重區疏洪五路","水利署（與縣市政府合建）","新北市政府水利局(智慧防汛)","3822500FL0024","241新北市三重區疏洪五路","121.47743","25.06013","cc301646-4fdf-4640-a6ef-f3dcf7ed7d3c","淹水深度","三重區疏洪五路","淹水高度量測","淹水感測器","淹水深度","cm"
"da14ea86-3480-40e3-8a2a-94c4b5817e63","三峽區學勤路與大觀路口","水利署（與縣市政府合建）","新北市政府水利局(智慧防汛)","3822500FL0042","237新北市三峽區學勤路(台北大學門口)","121.37332","24.945345","ecc2904c-7c5a-4c83-8219-8f2e034e79b4","淹水深度","三峽區學勤路與大觀路口","淹水高度量測","淹水感測器","淹水深度","cm"
"d20a99bb-a003-4862-9a6b-c6e99904173a","三盛村_嘉晉工程","水利署（與縣市政府合建）","雲林縣政府水利處","3764900FL108YL59","雲林縣麥寮鄉，橋頭排水線","120.26123","23.794163","fdb39a62-7e2f-4f42-8ebf-4a87fab35d46","直流電壓","三盛村_嘉晉工程_電池電壓","記錄傳輸紀錄器充電電壓","淹水感測器","電力","V"
"de88b043-4cf0-44ad-a8b9-008a51767ddf","下崙村_中和路90巷","水利署（與縣市政府合建）","雲林縣政府水利處","3764900FL108YL13","雲林縣口湖鄉，小田支線","120.1611","23.62375","18801f93-6457-4601-af49-23785d988d1f","直流電壓","下崙村_中和路90巷_電池電壓","記錄傳輸紀錄器充電電壓","淹水感測器","電力","V"
"a76085f4-0402-452f-8b4f-36f6f0b00a3b","三義鄉鯉魚潭村守望相助隊","水利署（與縣市政府合建）","苗栗縣政府水利處","3764500RVFL00032","苗栗縣三義鄉鯉魚潭村鯉魚潭村守望相助隊","120.7434","24.348598","1f91597e-9212-410d-817a-9671665d23f9","淹水深度","三義鄉鯉魚潭村守望相助隊淹水高度","淹水高度量測(高度<5cm;每1小時回傳;5<高度<30cm;每10分鐘回傳;30cm<高度;每5分鐘回傳)","淹水感測器","淹水深度","cm"
"e13286ee-5e7a-404b-9f78-3bbd7797d307","下崙村_福安路95巷","水利署（與縣市政府合建）","雲林縣政府水利處","3764900FL108YL14","雲林縣口湖鄉，飛沙大排水溝","120.16085","23.620403","563184bd-da73-4b3b-a68e-a886fc6f4396","淹水深度","下崙村_福安路95巷_淹水深度","定點量測路面淹水深度","淹水感測器","淹水深度","cm"
"e13286ee-5e7a-404b-9f78-3bbd7797d307","下崙村_福安路95巷","水利署（與縣市政府合建）","雲林縣政府水利處","3764900FL108YL14","雲林縣口湖鄉，飛沙大排水溝","120.16085","23.620403","eeaa4e00-d021-4d30-abd8-71a94d3dd42a","傳輸訊號強度","下崙村_福安路95巷_訊號強度","記錄傳輸紀錄器通訊訊號強度","淹水感測器","其他","dBm"
"de88b043-4cf0-44ad-a8b9-008a51767ddf","下崙村_中和路90巷","水利署（與縣市政府合建）","雲林縣政府水利處","3764900FL108YL13","雲林縣口湖鄉，小田支線","120.1611","23.62375","f2fbba3a-41bb-480a-ac5a-65550f9a9890","傳輸訊號強度","下崙村_中和路90巷_訊號強度","記錄傳輸紀錄器通訊訊號強度","淹水感測器","其他","dBm"
"94c33f76-c23a-471b-bf6b-19218c35d213","下寮村_川琦紙業","水利署（與縣市政府合建）","雲林縣政府水利處","3764900FL108YL21","雲林縣元長鄉，客仔庴大排","120.338455","23.611683","30f8a88a-f4be-4a5d-ade1-ecd387acdf75","傳輸訊號強度","下寮村_川琦紙業_訊號強度","記錄傳輸紀錄器通訊訊號強度","淹水感測器","其他","dBm"
"9f42fd95-6da9-4b18-99b9-d2409e0ece3e","下營區-大屯保安宮(編號67)","水利署（與縣市政府合建）","臺南市政府水利局","TNIOT067","大屯保安宮附近","120.238785","23.23437","428aacfa-cd78-43c7-b018-43bd9e4ab44a","淹水深度","下營區-大屯保安宮(編號67)","TNIOT067","淹水感測器","淹水深度","cm"
"e13286ee-5e7a-404b-9f78-3bbd7797d307","下崙村_福安路95巷","水利署（與縣市政府合建）","雲林縣政府水利處","3764900FL108YL14","雲林縣口湖鄉，飛沙大排水溝","120.16085","23.620403","4494903f-0d64-420c-84f1-0a6389ff1e7e","直流電壓","下崙村_福安路95巷_電池電壓","記錄傳輸紀錄器充電電壓","淹水感測器","電力","V"
"94c33f76-c23a-471b-bf6b-19218c35d213","下寮村_川琦紙業","水利署（與縣市政府合建）","雲林縣政府水利處","3764900FL108YL21","雲林縣元長鄉，客仔庴大排","120.338455","23.611683","8e9a1ddd-69bb-4d70-a50f-764e3c3b0b16","淹水深度","下寮村_川琦紙業_淹水深度","定點量測路面淹水深度","淹水感測器","淹水深度","cm"
"5b9fa98a-e0e4-476d-b5ec-8f047ec7fc1e","下營區-下橋頭仔站(編號66)","水利署（與縣市政府合建）","臺南市政府水利局","TNIOT066","南63下橋頭段(168薰茶鵝)","120.28405","23.232256","b13fc1f1-7343-43dd-93ea-05e4ea307f27","淹水深度","下營區-下橋頭仔站(編號66)","TNIOT066","淹水感測器","淹水深度","cm"
"337859df-2daf-4973-8329-c69772245a10","下營區-大吉里南174線14.4公里處(編號257)","水利署（與縣市政府合建）","臺南市政府水利局","3952500FL085","","120.2304","23.234","f5435097-08d7-49f8-9c29-cbb3ccc15ac8","淹水深度","下營區-大吉里南174線14.4公里處(編號257)","TSIOT024","淹水感測器","淹水深度","cm"
"91f0d4ab-38de-4352-9cc6-04e1a0046028","口湖村_永昌街","水利署（與縣市政府合建）","雲林縣政府水利處","3764900FL108YL08","雲林縣口湖鄉，牛尿港分線","120.18106","23.58671","250ee82a-1edb-4521-88a1-d6b748607f24","傳輸訊號強度","口湖村_永昌街_訊號強度","記錄傳輸紀錄器通訊訊號強度","淹水感測器","其他","dBm"
"2eec5886-f683-463b-bd41-94eb20a884f9","下營區-南58線頂角橋旁(編號93)","水利署（與縣市政府合建）","臺南市政府水利局","3952500FLTN091","南58線頂角橋道路","120.29012","23.218393","4189824a-daa4-491d-95db-7fd93c149f4e","淹水深度","下營區-南58線頂角橋旁(編號93)","TNWG010","淹水感測器","","cm"
"bd5cb8b2-cacf-47e9-8880-1f87cfc54d3c","下營區-大吉里南56-1線(與仁里街438巷)交叉路口(編號258)","水利署（與縣市政府合建）","臺南市政府水利局","3952500FL086","","120.24659","23.215282","6004a552-ef70-4f2a-b54b-cce8c17b6868","淹水深度","下營區-大吉里南56-1線(與仁里街438巷)交叉路口(編號258)","TSIOT025","淹水感測器","淹水深度","cm"
"bc4b4291-83fc-4ee7-885d-34b1bba67a78","下營區-仁里街與仁南街口(編號65)","水利署（與縣市政府合建）","臺南市政府水利局","TNIOT065","仁里街仁南街口(阿霞鮮花店)","120.2592","23.228107","624ee966-5f8b-429b-b337-1245937bdebf","淹水深度","下營區-仁里街與仁南街口(編號65)","TNIOT065","淹水感測器","淹水深度","cm"
"91f0d4ab-38de-4352-9cc6-04e1a0046028","口湖村_永昌街","水利署（與縣市政府合建）","雲林縣政府水利處","3764900FL108YL08","雲林縣口湖鄉，牛尿港分線","120.18106","23.58671","fe587378-9b7b-4a79-a7e7-092efbd4ed96","直流電壓","口湖村_永昌街_電池電壓","記錄傳輸紀錄器充電電壓","淹水感測器","電力","V"
"e9b43af4-04c7-4bcd-8d39-4418bad6f960","土城區中央路二段48號","水利署（與縣市政府合建）","新北市政府水利局(智慧防汛)","3822500FL0106","土城區中央路二段48號","121.44263","24.979664","5590bc85-f155-4b4c-a6b5-cae60a078eca","淹水深度","土城區中央路二段48號淹水高度","淹水高度量測(高度<5cm 每1小時回傳;5<高度<30cm 每10分鐘回傳;30cm<高度 每5分鐘回傳)","淹水感測器","","cm"
"5ad92890-d26d-414a-a9e1-b6e937752480","土城區承天路4巷17之1號","水利署（與縣市政府合建）","新北市政府水利局(智慧防汛)","3822500FL0058","236新北市土城區承天路4巷17之1號對面","121.43635","24.96093","893aea79-09a5-4706-a90e-8fddd5ac7389","淹水深度","土城區承天路4巷17之1號","淹水高度量測","淹水感測器","淹水深度","cm"
"ad6d411a-38b1-4e0a-a576-04b8b38596d2","土城區學府路一段129巷","水利署（與縣市政府合建）","新北市政府水利局(智慧防汛)","3822500FL0108","土城區學府路一段129巷","121.45404","24.986446","99e2278b-ebce-4d4b-8af1-d80c46fd4588","淹水深度","土城區學府路一段129巷淹水高度","淹水高度量測(高度<5cm 每1小時回傳;5<高度<30cm 每10分鐘回傳;30cm<高度 每5分鐘回傳)","淹水感測器","","cm"
"5b6cb0aa-1806-49d5-b797-35819c31fef1","土城區金城路三段與延吉街口","水利署（與縣市政府合建）","新北市政府水利局(智慧防汛)","3822500FL0107","土城區金城路三段與延吉街口","121.47168","24.989704","9f09e5fc-0f31-4339-a4a9-4805afee1eda","淹水深度","土城區金城路三段與延吉街口淹水高度","淹水高度量測(高度<5cm 每1小時回傳;5<高度<30cm 每10分鐘回傳;30cm<高度 每5分鐘回傳)","淹水感測器","","cm"
"9951a77c-c5d3-49ac-b3b7-7fc2ce693d75","土城區成功街與復興街口","水利署（與縣市政府合建）","新北市政府水利局(智慧防汛)","3822500FL0109","土城區成功街與復興街口","121.42556","24.967875","f00a67ec-c776-485e-84c8-a205da926a3c","淹水深度","土城區成功街與復興街口淹水高度","淹水高度量測(高度<5cm 每1小時回傳;5<高度<30cm 每10分鐘回傳;30cm<高度 每5分鐘回傳)","淹水感測器","","cm"
"e0caa10b-798e-4a1d-95e5-0f1380470507","大仁路50巷-1","水利署（與縣市政府合建）","桃園巿政府水務局(智慧防汛)","3802500FL1217014","","121.32437","24.9738","14f1b9da-a16b-41b6-ad67-8c5416fad538","淹水深度","大仁路50巷-1-F01-014-水位","路面淹水站","淹水感測器","淹水深度","cm"
"25624fed-b27b-492b-8aab-bdf9a9d663ca","大內區-56號水門(編號95)","水利署（與縣市政府合建）","臺南市政府水利局","3952500FLTN093","56號水門","120.37859","23.12247","30fda528-0b36-44f2-b530-9ae3a4b60fcb","淹水深度","大內區-56號水門(編號95)","TNWG012","淹水感測器","","cm"
"460f14f8-7495-4134-9a5d-ea2850760d47","大內區-石林里橄欖腳(編號94)","水利署（與縣市政府合建）","臺南市政府水利局","3952500FLTN092","石林里橄欖腳","120.359726","23.123476","381346a5-f269-4b7c-b30e-b08422a877b0","淹水深度","大內區-石林里橄欖腳(編號94)","TNWG011","淹水感測器","","cm"
"2a780100-180e-4af2-a7fd-0759b28759dd","大仁路50巷-2","水利署（與縣市政府合建）","桃園巿政府水務局(智慧防汛)","3802500FL1217015","","121.32323","24.972473","725c500b-1e8b-4d39-b1eb-dfb7117c4f23","淹水深度","大仁路50巷-2-F01-015-水位","路面淹水站","淹水感測器","淹水深度","cm"
"49716ecf-2aad-4684-86b0-685f05bccf42","大牛欄150號","水利署（與縣市政府合建）","桃園巿政府水務局(智慧防汛)","3802500FL1217139","","121.02426","24.99899","7fa04344-81f8-4653-9081-9fc7900df0a7","淹水深度","大牛欄150號-F11-701-水位","路面淹水站","淹水感測器","淹水深度","cm"
"cd17810a-9f7a-44e1-82d2-3ac60eb2fb88","士校大池-1","水利署（與縣市政府合建）","桃園巿政府水務局(智慧防汛)","3802500FL1217045","","121.256424","24.940266","8d192c8e-b72b-4e3f-bbab-f62a2e17f925","淹水深度","士校大池-1-F02-016-水位","路面淹水站","淹水感測器","淹水深度","cm"
"dd706a22-f5c8-40fa-984c-eec83808d59e","大甲區日南路57號","水利署（與縣市政府合建）","台中市政府水利局","3872500FL0219","437臺中市大甲區日南路57號","120.65038","24.393084","9a80dc71-c4fb-4b5d-983c-7bfeaced4eeb","淹水深度","大甲區日南路57號淹水深度","淹水高度量測(高度0時每1HR回傳>30cm每5MIN回傳<30cm每45MIN回傳)","淹水感測器","淹水深度","cm"
"1acac5c9-63d4-41c4-a088-d46f16ed8013","大甲區文武路278巷108號","水利署（與縣市政府合建）","台中市政府水利局","3872500FL0214","437臺中市大甲區文武路278巷108號","120.617645","24.350088","add048bb-2300-40e8-9cda-884000287255","淹水深度","大甲區文武路278巷108號淹水深度","淹水高度量測(高度0時每1HR回傳>30cm每5MIN回傳<30cm每40MIN回傳)","淹水感測器","淹水深度","cm"
"5c5ce80e-9549-4106-8d3e-16561be1045e","大中二路與文慈路口","水利署（與縣市政府合建）","高雄市政府水利局","3972500FL0059","左營區大中二路與文慈路口","120.31726","22.679396","b5ef0d24-97dc-49a1-8c7a-35045085a6a0","淹水深度","大中二路與文慈路口_淹水感測器","路面淹水水深量測，作為積淹水警戒","淹水感測器","淹水深度","cm"
"03454bed-a8bf-43bc-9f11-137bb370c81b","士校大池-2","水利署（與縣市政府合建）","桃園巿政府水務局(智慧防汛)","3802500FL1217046","","121.257225","24.941786","c2d944e9-e4ed-48e2-bbdc-1a572810a332","淹水深度","士校大池-2-F02-017-水位","路面淹水站","淹水感測器","淹水深度","cm"
"a090b02d-9774-4e36-a122-6e0280211627","大仁科大","水利署（與縣市政府合建）","屏東縣政府水利處","3765300FL2021011","屏東縣鹽埔鄉新二村維新路17號","120.5411","22.72611","ec86daee-cd31-49ac-9f05-c31e08305daa","淹水深度","大仁科大_淹水深度cm","監測淹水情況","淹水感測器","淹水深度","cm"
"3933ec47-a6fa-4637-b1bc-a647cdcc944e","大同里_哈寶堡早餐","水利署（與縣市政府合建）","雲林縣政府水利處","3764900FL108YL36","雲林縣北港鎮，北港溪","120.30306","23.57212","65249441-9650-44f1-93f0-7a6176ed1cb7","直流電壓","大同里_哈寶堡早餐_電池電壓","記錄傳輸紀錄器充電電壓","淹水感測器","電力","V"
"a23dcc5e-0f24-4d54-b882-e630fb6f82d6","大同橋（護城河邊）","水利署（與縣市政府合建）","新竹市政府消防局","3765800FL00025","大同橋（護城河邊）","120.970474","24.803328","6821e312-3f04-46c4-af72-5f20275044b8","淹水深度","大同橋（護城河邊）淹水高度","淹水高度量測 =0CM:1hr回傳1筆 <30cm:10min傳1筆 >30cm:5min傳1筆)","淹水感測器","淹水深度","cm"
"791ae99d-e1da-4d05-8863-c1b09f8b5d5b","大甲區育德路與新政路交叉口","水利署（與縣市政府合建）","台中市政府水利局","3872500FL0223","437臺中市大甲區育德路與新政路交叉口","120.62519","24.34901","7c005ee8-bd5f-493a-8384-0bb926d66a5b","淹水深度","大甲區育德路與新政路交叉口淹水深度","淹水高度量測(高度0時每1HR回傳>30cm每5MIN回傳<30cm每49MIN回傳)","淹水感測器","淹水深度","cm"
"d5e33e47-920a-454a-8be1-ecf00e84fe6e","大甲區蔣公路296巷304號","水利署（與縣市政府合建）","台中市政府水利局","3872500FL0131","437臺中市大甲區蔣公路296巷304號","120.61745","24.347862","de184ea6-7c5a-4b23-a0d0-483151e44604","淹水深度","大甲區蔣公路296巷304號淹水深度","淹水高度量測(高度0時每1HR回傳>30cm每5MIN回傳<30cm每22MIN回傳)","淹水感測器","淹水深度","cm"
"828ee2d9-9f25-4e39-86fc-b15975d6cb81","大同路28號","水利署（與縣市政府合建）","桃園巿政府水務局(智慧防汛)","3802500FL1217125","","121.21887","24.85735","ea181362-f252-41f4-a64c-2f8ad3e66f07","淹水深度","大同路28號-F09-004-水位","路面淹水站","淹水感測器","淹水深度","cm"
"3933ec47-a6fa-4637-b1bc-a647cdcc944e","大同里_哈寶堡早餐","水利署（與縣市政府合建）","雲林縣政府水利處","3764900FL108YL36","雲林縣北港鎮，北港溪","120.30306","23.57212","fafabd43-cb44-4427-bfb5-0d8a34ee378e","淹水深度","大同里_哈寶堡早餐_淹水深度","定點量測路面淹水深度","淹水感測器","淹水深度","cm"
"b7b69365-2439-468c-957f-a2e6bba0e799","大安區福安路38號","水利署（與縣市政府合建）","台中市政府水利局","3872500FL0129","439臺中市大安區福安路38號","120.60816","24.348597","9627c44b-96e9-4732-8908-2ce8c78beac1","淹水深度","大安區福安路38號淹水深度","淹水高度量測(高度0時每1HR回傳>30cm每5MIN回傳<30cm每20MIN回傳)","淹水感測器","淹水深度","cm"
"fc143409-6785-4435-9113-87ec0a7b06ee","大有村_鄰近阿勸大排","水利署（與縣市政府合建）","雲林縣政府水利處","3764900FL109YL48","雲林縣崙背鄉，阿勸分線","120.31136","23.754372","0a1a2bb9-0f58-4b6d-922b-665011267d42","直流電壓","大有村_鄰近阿勸大排_電池電壓","記錄傳輸紀錄器充電電壓","淹水感測器","電力","V"
"fc143409-6785-4435-9113-87ec0a7b06ee","大有村_鄰近阿勸大排","水利署（與縣市政府合建）","雲林縣政府水利處","3764900FL109YL48","雲林縣崙背鄉，阿勸分線","120.31136","23.754372","2cb653d3-ad2e-47b2-9e46-9c696810c0be","傳輸訊號強度","大有村_鄰近阿勸大排_訊號強度","記錄傳輸紀錄器通訊訊號強度","淹水感測器","其他","dBm"
"fc143409-6785-4435-9113-87ec0a7b06ee","大有村_鄰近阿勸大排","水利署（與縣市政府合建）","雲林縣政府水利處","3764900FL109YL48","雲林縣崙背鄉，阿勸分線","120.31136","23.754372","632dcb42-39fc-46bd-bff5-4da928e8e33c","淹水深度","大有村_鄰近阿勸大排_淹水深度","定點量測路面淹水深度","淹水感測器","淹水深度","cm"
"fad5ac93-05bf-4f36-a6bb-d57b5284bca6","大有村_鄰近大有大排","水利署（與縣市政府合建）","雲林縣政府水利處","3764900FL109YL49","雲林縣崙背鄉，大有大排水溝","120.304146","23.761084","9ef5f2e7-ac8e-4d65-a8e8-701094c2610c","淹水深度","大有村_鄰近大有大排_淹水深度","定點量測路面淹水深度","淹水感測器","淹水深度","cm"
"fad5ac93-05bf-4f36-a6bb-d57b5284bca6","大有村_鄰近大有大排","水利署（與縣市政府合建）","雲林縣政府水利處","3764900FL109YL49","雲林縣崙背鄉，大有大排水溝","120.304146","23.761084","cb71bc05-5af8-4086-bdfd-42b149cd80c3","傳輸訊號強度","大有村_鄰近大有大排_訊號強度","記錄傳輸紀錄器通訊訊號強度","淹水感測器","其他","dBm"
"6ebdc8d8-cebc-4a58-9350-4af547deb0be","大肚區沙田路二段450號","水利署（與縣市政府合建）","台中市政府水利局","3872500FL0213","432臺中市大肚區沙田路二段450號","120.54665","24.14648","10d5cc13-d298-4e8d-9483-2944c9218b8d","淹水深度","大肚區沙田路二段450號淹水深度","淹水高度量測(高度0時每1HR回傳>30cm每5MIN回傳<30cm每39MIN回傳)","淹水感測器","淹水深度","cm"
"69da9753-060d-4c07-b5ac-f9477fedab27","大肚區自由路286巷","水利署（與縣市政府合建）","台中市政府水利局","3872500FL0163","432臺中市大肚區自由路286巷","120.5491","24.15159","2262a7c9-8127-45b3-8d12-377865323b70","淹水深度","大肚區自由路286巷淹水深度","淹水高度量測(高度0時每1HR回傳>30cm每5MIN回傳<30cm每25MIN回傳)","淹水感測器","淹水深度","cm"
"20461afd-e898-42b5-8de6-116eb6436c69","大里區西湖里西湖路","水利署（與縣市政府合建）","台中市政府水利局","3872500FL0022","臺中市大里區西湖里西湖路187巷298號對面","120.683784","24.071945","516e7d73-1a8e-4fd7-a363-beecc71b4df1","淹水深度","大里區西湖里西湖路淹水高度","淹水高度量測(高度0時每1HR回傳>30cm每5MIN回傳<30cm每11MIN回傳)","淹水感測器","淹水深度","cm"
"c16a92b4-ec1b-472b-a1cd-f6e11381dc13","大里區立仁里甲興路","水利署（與縣市政府合建）","台中市政府水利局","3872500FL0003","臺中市大里區立仁里甲興路22號","120.69691","24.105593","5b733591-1b36-4ccd-97f8-49b9737ae4a9","淹水深度","大里區立仁里甲興路淹水高度","淹水高度量測(高度0時每1HR回傳>30cm每5MIN回傳<30cm每10MIN回傳)","淹水感測器","淹水深度","cm"
"80bbaf6e-dad7-48b9-9b14-937f1f3ea7aa","大里區仁慈街352號","水利署（與縣市政府合建）","台中市政府水利局","3872500FL0144","412臺中市大里區仁慈街352號","120.70159","24.09775","6301c109-80cc-4dc4-af2b-5b29473e4325","淹水深度","大里區仁慈街352號淹水深度","淹水高度量測(高度0時每1HR回傳>30cm每5MIN回傳<30cm每25MIN回傳)","淹水感測器","淹水深度","cm"
"19bd1a8b-9a33-425b-8128-64284b11f726","大肚區大明五街179巷2號","水利署（與縣市政府合建）","台中市政府水利局","3872500FL0248","432臺中市大肚區大明五街179巷2號","120.54038","24.152588","a2b7c0ff-a09f-4ece-aa40-07ac054530b1","淹水深度","大肚區大明五街179巷2號淹水深度","淹水高度量測(高度0時每1HR回傳>30cm每5MIN回傳<30cm每74MIN回傳)","淹水感測器","淹水深度","cm"
"77f1125d-82ac-4590-a000-fea6592976af","大里區西湖里草堤路","水利署（與縣市政府合建）","台中市政府水利局","3872500FL0085","412臺中市大里區西湖里草堤路219號","120.67449","24.08215","bae98279-3cee-41b2-9c02-0a07e1a0ba25","淹水深度","大里區西湖里草堤路淹水高度","淹水高度量測(高度0時每1HR回傳>30cm每5MIN回傳<30cm每25MIN回傳)","淹水感測器","淹水深度","cm"
"2e4bd79c-3da4-497a-bed1-4ce6bfac41bc","大里區立新一街","水利署（與縣市政府合建）","台中市政府水利局","3872500FL0156","412臺中市大里區立新一街","120.69609","24.104948","d47fa85e-4915-478a-8c21-258fc93fe960","淹水深度","大里區立新一街淹水深度","淹水高度量測(高度0時每1HR回傳>30cm每5MIN回傳<30cm每25MIN回傳)","淹水感測器","淹水深度","cm"
"686541cf-b449-472b-b160-8912ae0f1bac","大肚區大東里藍色公路口[CCTV]","水利署（與縣市政府合建）","台中市政府水利局","3872500FL0012","臺中市大肚區大東里藍色公路口","120.54887","24.152014","d517ee4a-e83c-4c11-b64a-1e53798650ab","淹水深度","大肚區大東里藍色公路口淹水高度","淹水高度量測(高度0時每1HR回傳>30cm每5MIN回傳<30cm每10MIN回傳)","淹水感測器","淹水深度","cm"
"a215c43a-884b-486f-9ec2-26f9890b49af","大里區東南路164號","水利署（與縣市政府合建）","台中市政府水利局","3872500FL0150","412臺中市大里區東南路164號","120.694115","24.079323","285b26c4-b731-4d63-8f54-2d32a47c0a99","淹水深度","大里區東南路164號淹水深度","淹水高度量測(高度0時每1HR回傳>30cm每5MIN回傳<30cm每25MIN回傳)","淹水感測器","淹水深度","cm"
"b782b71a-1da1-4c54-9b14-1f84405af458","大昌路","水利署（與縣市政府合建）","桃園巿政府水務局(智慧防汛)","3802500FL1217122","","121.22189","24.866796","51a85cdd-8373-4424-843e-e160f1906835","淹水深度","大昌路-F09-001-水位","路面淹水站","淹水感測器","淹水深度","cm"
"8a199b8d-5358-4096-90bc-4b46e4971924","大里區東榮路503號","水利署（與縣市政府合建）","台中市政府水利局","3872500FL0151","412臺中市大里區東榮路503號","120.67905","24.10931","600f1f60-e69c-4811-86f7-3a6306054a0d","淹水深度","大里區東榮路503號淹水深度","淹水高度量測(高度0時每1HR回傳>30cm每5MIN回傳<30cm每25MIN回傳)","淹水感測器","淹水深度","cm"
"10999eb5-653f-4732-9c84-ca3c1855857b","大里區新生路135巷3號","水利署（與縣市政府合建）","台中市政府水利局","3872500FL0170","412臺中市大里區新生路135巷3號","120.69105","24.104408","7c1f129f-25f2-455e-a370-8060276953d2","淹水深度","大里區新生路135巷3號淹水深度","淹水高度量測(高度0時每1HR回傳>30cm每5MIN回傳<30cm每25MIN回傳)","淹水感測器","淹水深度","cm"
"29d6e2f2-8bc6-440a-81a7-d923c15264ad","大里區國中路十股巷109號","水利署（與縣市政府合建）","台中市政府水利局","3872500FL0176","412臺中市大里區國中路十股巷109號","120.65958","24.087914","a2a2ea3d-9d25-420f-b471-cc603590c4e1","淹水深度","大里區國中路十股巷109號淹水深度","淹水高度量測(高度0時每1HR回傳>30cm每5MIN回傳<30cm每25MIN回傳)","淹水感測器","淹水深度","cm"
"6bd11018-1e69-468f-a504-3e0457e9f187","大里區勝利二路與德芳南二街交叉口","水利署（與縣市政府合建）","台中市政府水利局","3872500FL0154","412臺中市大里區勝利二路與德芳南二街交叉口","120.68531","24.100525","a7940ef0-2ab2-4a97-bd5d-51b332a204a6","淹水深度","大里區勝利二路與德芳南二街交叉口淹水深度","淹水高度量測(高度0時每1HR回傳>30cm每5MIN回傳<30cm每25MIN回傳)","淹水感測器","淹水深度","cm"
"6de1ce06-b07e-4351-a3c0-e4bd50b54741","大里區西湖路與草堤路口","水利署（與縣市政府合建）","台中市政府水利局","3872500FL0189","412臺中市大里區西湖路與草堤路口","120.67899","24.084436","d37e140e-2d5b-4a91-92c2-3a8510821d0a","淹水深度","大里區西湖路與草堤路口淹水深度","淹水高度量測(高度0時每1HR回傳>30cm每5MIN回傳<30cm每25MIN回傳)","淹水感測器","淹水深度","cm"
"d427e570-1a8a-46a4-802f-c1b209513da4","大里區樹王路23號","水利署（與縣市政府合建）","台中市政府水利局","3872500FL0191","412臺中市大里區樹王路23號","120.67613","24.10173","db131b9f-ba24-49a0-811e-9e96d6a3281e","淹水深度","大里區樹王路23號淹水深度","淹水高度量測(高度0時每1HR回傳>30cm每5MIN回傳<30cm每25MIN回傳)","淹水感測器","淹水深度","cm"
"2b9a0095-59f7-4f57-8de0-5c16714af039","大里區夏田里國中路","水利署（與縣市政府合建）","台中市政府水利局","3872500FL0001","臺中市大里區夏田里國中路十股巷218號","120.65568","24.088675","ef0466ed-829b-4f5a-a717-ac90631c3521","淹水深度","大里區夏田里國中路淹水高度","淹水高度量測(高度0時每1HR回傳>30cm每5MIN回傳<30cm每10MIN回傳)","淹水感測器","淹水深度","cm"
"cb809d1a-511e-4d44-9942-6e117d842bd7","大坡國小","水利署（與縣市政府合建）","桃園巿政府水務局(智慧防汛)","3802500FL1217144","","121.03971","24.957321","f5ab2ecc-de11-47ca-8003-3d9b0866e1c0","淹水深度","大坡國小-F11-706-水位","路面淹水站","淹水感測器","淹水深度","cm"
"5f7b5163-a568-4e2d-a60f-a07533ec3b6f","大里區仁德里仁化路與慈德路口","水利署（與縣市政府合建）","台中市政府水利局","3872500FL0098","412台中市大里區仁德里仁化路與慈德路口","120.698975","24.09646","fe9ec2b2-1426-48a7-b8b8-ac7c8ae920b1","淹水深度","大里區仁德里仁化路與慈德路口淹水高度","淹水高度量測(高度0時每1HR回傳>30cm每5MIN回傳<30cm每25MIN回傳)","淹水感測器","淹水深度","cm"
"aa5e966b-5592-4250-b0ad-2b9bbd85fac0","大里區環河路一段862巷","水利署（與縣市政府合建）","台中市政府水利局","3872500FL0173","412臺中市大里區環河路一段862巷","120.65902","24.09254","ff8ab1fd-6046-4602-a9db-8c044dde57f5","淹水深度","大里區環河路一段862巷淹水深度","淹水高度量測(高度0時每1HR回傳>30cm每5MIN回傳<30cm每25MIN回傳)","淹水感測器","淹水深度","cm"
"2d6b2557-8f04-40f1-a95b-c781b2f0f9f1","大里區國光里東榮路(仁愛醫院)","水利署（與縣市政府合建）","台中市政府水利局","3872500FL0082","412台中市大里區國光里東榮路483號(仁愛醫院)","120.679985","24.109295","2782fe39-8533-4a17-8111-23aec956c897","淹水深度","大里區國光里東榮路(仁愛醫院)淹水高度","淹水高度量測(高度0時每1HR回傳>30cm每5MIN回傳<30cm每25MIN回傳)","淹水感測器","淹水深度","cm"
"6225cf75-ab57-409b-84cd-59c8d159c856","CYC023 大林鎮平林里","水利署（與縣市政府合建）","嘉義縣政府水利處","3765000FLCYC023","中正路324巷60號附近","120.45264","23.59834","38533eb3-a7e3-4548-93bb-66ca2cf5884f","淹水深度","CYC023 大林鎮平林里淹水深度","CYC023 大林鎮平林里淹水深度","淹水感測器","淹水深度","cm"
"bc7bcb4c-d917-44c1-a70a-0ed81d9ffa27","CYC024 大林鎮西結里陳井寮","水利署（與縣市政府合建）","嘉義縣政府水利處","3765000FLCYC024","西結里184號附近","120.4115","23.61239","39465a1f-dc88-4d33-8101-7e45c6480c2d","淹水深度","CYC024 大林鎮西結里陳井寮淹水深度","CYC024 大林鎮西結里陳井寮淹水深度","淹水感測器","淹水深度","cm"
"997da9f8-a13f-4b4f-8dfe-466c64ddb445","CYC090 大林鎮三角里","水利署（與縣市政府合建）","嘉義縣政府水利處","3765000FLCYC090","嘉97縣道附近","120.49958","23.633251","e2009b8b-53e3-4e9f-8774-48e3323bf145","淹水深度","CYC090 大林鎮三角里淹水深度","CYC090 大林鎮三角里淹水深度","淹水感測器","淹水深度","cm"
"7f02042f-f5a9-43ee-9498-2864a0403bf6","大突里1","水利署（與縣市政府合建）","彰化縣政府水資處","3764700FL0019028","514彰化縣溪湖鎮大道街183號","120.47226","23.962229","35c41422-4b27-4126-bc5c-22e1edd1297f","淹水深度","大突里1淹水高度","淹水高度量測(高度0時每1HR回傳>5cm每5MIN回傳<10cm每10MIN回傳)","淹水感測器","淹水深度","cm"
"27204eb2-75ff-4f82-9205-b9913ef15d89","大埤路(自來水七區管理處)","水利署（與縣市政府合建）","高雄市政府水利局","3972500FL0047","鳥松區大埤路(自來水七區管理處)","120.35681","22.65362","73939f0f-5d3e-428b-b9da-3194c04c20db","淹水深度","大埤路(自來水七區管理處)_淹水感測器","路面淹水水深量測，作為積淹水警戒","淹水感測器","淹水深度","cm"
"5a6a9620-f625-4919-80b3-158cf8ccac03","大湖鄉南湖村2","水利署（與縣市政府合建）","苗栗縣政府水利處","3764500RVFL00023","苗栗縣大湖鄉南湖村","120.86767","24.398987","9c3775f0-22c3-4883-9e65-47d51ccc5198","淹水深度","大湖鄉南湖村2淹水高度","淹水高度量測(高度<5cm;每1小時回傳;5<高度<30cm;每10分鐘回傳;30cm<高度;每5分鐘回傳)","淹水感測器","淹水深度","cm"
"a329634e-c449-44ff-b143-c74911c2fd76","大湖鄉南湖村1","水利署（與縣市政府合建）","苗栗縣政府水利處","3764500RVFL00026","苗栗縣大湖鄉南湖村","120.86778","24.40059","a3ee9a53-ec6e-45c6-b6ac-dfdeb24635c0","淹水深度","大湖鄉南湖村1淹水高度","淹水高度量測(高度<5cm;每1小時回傳;5<高度<30cm;每10分鐘回傳;30cm<高度;每5分鐘回傳)","淹水感測器","淹水深度","cm"
"6eccfe52-d6ef-4a9b-98e9-619edf1900d0","大華北街","水利署（與縣市政府合建）","桃園巿政府水務局(智慧防汛)","3802500FL120202","","121.24935","25.038738","13c6c7a1-b9e7-417c-befe-1da04453e128","淹水深度","大華北街-20180510120202-水位","路面淹水站","淹水感測器","淹水深度","cm"
"eaf46668-bcdf-4c3f-a725-2f992c1021d6","大雅區通山路","水利署（與縣市政府合建）","台中市政府水利局","3872500FL0113","428臺中市大雅區通山路","120.6294","24.208744","3ffb7552-880f-493c-9977-c04499fc0c55","淹水深度","大雅區通山路淹水深度","淹水高度量測(高度0時每1HR回傳>30cm每5MIN回傳<30cm每10MIN回傳)","淹水感測器","淹水深度","cm"
"b2985dc9-5a1f-4638-a0e8-6c517271fd43","大雅區西村路","水利署（與縣市政府合建）","台中市政府水利局","3872500FL0103","428臺中市大雅區西村路","120.66499","24.207115","44c61f5d-42fa-4218-b3ee-5d8a56388b84","淹水深度","大雅區西村路12-2號淹水深度","淹水高度量測(高度0時每1HR回傳>30cm每5MIN回傳<30cm每10MIN回傳)","淹水感測器","淹水深度","cm"
"040af7d0-03bb-431d-bd6b-19ecb348eb35","大雅區西寶里昌平路三段","水利署（與縣市政府合建）","台中市政府水利局","3872500FL0024","大雅區西寶里昌平路三段640號","120.668846","24.214647","5554650c-5fa5-412d-984b-f595ed205aff","淹水深度","大雅區西寶里昌平路三段淹水高度","淹水高度量測(高度0時每1HR回傳>30cm每5MIN回傳<30cm每13MIN回傳)","淹水感測器","淹水深度","cm"
"7d090175-867a-4be6-97d5-3888d523365a","大雅區東大路二段(大肚山墓園口)","水利署（與縣市政府合建）","台中市政府水利局","3872500FL0106","428臺中市大雅區東大路二段(大肚山墓園口)","120.61356","24.227123","620eba25-5ca8-45b5-af58-7099b5ee9f69","淹水深度","大雅區東大路二段(大肚山墓園口)淹水深度","淹水高度量測(高度0時每1HR回傳>30cm每5MIN回傳<30cm每10MIN回傳)","淹水感測器","淹水深度","cm"
"b598281c-1414-4771-8531-d481cf84a816","大雅區橫山里永和路[CCTV]","水利署（與縣市政府合建）","台中市政府水利局","3872500FL0026","臺中市大雅區橫山里永和路11之18號","120.62962","24.20864","7d67e8a8-ac2d-49f2-9f9b-80e8d0de6924","淹水深度","大雅區橫山里永和路淹水高度","淹水高度量測(高度0時每1HR回傳>30cm每5MIN回傳<30cm每15MIN回傳)","淹水感測器","淹水深度","cm"
"c60e5c35-fdd3-4a4b-9a05-a113cbb7eb5a","大湳水上樂園","水利署（與縣市政府合建）","桃園巿政府水務局(智慧防汛)","3802500FL1217118","","121.31179","24.956509","b1c3e1d3-6a0b-44a3-8917-159ef26d9aee","淹水深度","大湳水上樂園-F08-703-水位","路面淹水站","淹水感測器","淹水深度","cm"
"b23ddba0-5edb-4c90-9674-514fb2976e73","大雅區西寶里西村路","水利署（與縣市政府合建）","台中市政府水利局","3872500FL0025","臺中市大雅區西寶里西村路","120.66591","24.209656","d8b30845-6eeb-48e4-b553-c73b764c2bc0","淹水深度","大雅區西寶里西村路淹水高度","淹水高度量測(高度0時每1HR回傳>30cm每5MIN回傳<30cm每14MIN回傳)","淹水感測器","淹水深度","cm"
"14d2a202-d5ea-407b-b05f-fdfe0b4bc0de","大湖鄉淋漓坪1之12號","水利署（與縣市政府合建）","苗栗縣政府水利處","3764500RVFL00025","苗栗縣大湖鄉義和村淋漓坪1之12號","120.86705","24.39616","e79e25a4-4eb4-4c5c-9c80-05ac15c12216","淹水深度","大湖鄉淋漓坪1之12號淹水高度","淹水高度量測(高度<5cm;每1小時回傳;5<高度<30cm;每10分鐘回傳;30cm<高度;每5分鐘回傳)","淹水感測器","淹水深度","cm"
"ecc93cfb-e15e-4f18-8d01-ff78f7730cfe","大新路與大正街交口","水利署（與縣市政府合建）","高雄市政府水利局","3972500RV1048","大新路與大正街交口","120.34903","22.725101","fcd04864-7eae-4f38-8628-9f2caedc17bd","淹水深度","大新路與大正街交口","大新路與大正街交口","淹水感測器","淹水深度","cm"
"3da2be33-fd8b-4db2-a2c0-a2cfce8aa6c0","大溝村_村落","水利署（與縣市政府合建）","雲林縣政府水利處","3764900FL108YL32","雲林縣水林鄉，水林分線三區","120.20576","23.567669","087e9b3d-bd07-4540-8b0e-8e4470ea21b2","直流電壓","大溝村_村落_電池電壓","記錄傳輸紀錄器充電電壓","淹水感測器","電力","V"
"acd8d048-021f-4ab1-a68d-035b1b546026","山上區-184牛稠埔段(編號96)","水利署（與縣市政府合建）","臺南市政府水利局","3952500FLTN094","184牛稠埔段","120.3738","23.096222","4f7f2468-4553-4c80-835e-bc8261474143","淹水深度","山上區-184牛稠埔段(編號96)","TNWG013","淹水感測器","","cm"
"3da78f80-d46d-4a7e-a4a1-b961f4dc1e25","大溝村_大興宮","水利署（與縣市政府合建）","雲林縣政府水利處","3764900FL108YL33","雲林縣水林鄉，大溝分線","120.21017","23.567858","78254a5a-fd9c-4c58-b525-bfb2eaed5a43","淹水深度","大溝村_大興宮_淹水深度","定點量測路面淹水深度","淹水感測器","淹水深度","cm"
"3da78f80-d46d-4a7e-a4a1-b961f4dc1e25","大溝村_大興宮","水利署（與縣市政府合建）","雲林縣政府水利處","3764900FL108YL33","雲林縣水林鄉，大溝分線","120.21017","23.567858","959f8590-07bc-49e8-b1c3-66f43710481a","傳輸訊號強度","大溝村_大興宮_訊號強度","記錄傳輸紀錄器通訊訊號強度","淹水感測器","其他","dBm"
"174609ba-c33f-474b-9c07-6a6690062ccc","大義村_村落","水利署（與縣市政府合建）","雲林縣政府水利處","3764900FL109YL01","雲林縣二崙鄉，大義崙大排水溝","120.40054","23.788418","9ca180bc-4fb8-4b56-abc6-247b72dc0bd1","淹水深度","大義村_村落_淹水深度","定點量測路面淹水深度","淹水感測器","淹水深度","cm"
"174609ba-c33f-474b-9c07-6a6690062ccc","大義村_村落","水利署（與縣市政府合建）","雲林縣政府水利處","3764900FL109YL01","雲林縣二崙鄉，大義崙大排水溝","120.40054","23.788418","a02f0de0-8243-4714-9e78-f62b7fa6c432","直流電壓","大義村_村落_電池電壓","記錄傳輸紀錄器充電電壓","淹水感測器","電力","V"
"174609ba-c33f-474b-9c07-6a6690062ccc","大義村_村落","水利署（與縣市政府合建）","雲林縣政府水利處","3764900FL109YL01","雲林縣二崙鄉，大義崙大排水溝","120.40054","23.788418","a3c257d4-83c7-4508-8e55-80b18466e308","傳輸訊號強度","大義村_村落_訊號強度","記錄傳輸紀錄器通訊訊號強度","淹水感測器","其他","dBm"
"3da2be33-fd8b-4db2-a2c0-a2cfce8aa6c0","大溝村_村落","水利署（與縣市政府合建）","雲林縣政府水利處","3764900FL108YL32","雲林縣水林鄉，水林分線三區","120.20576","23.567669","a5ad65dd-3aff-4570-b3ee-cfbf92fd9bcd","傳輸訊號強度","大溝村_村落_訊號強度","記錄傳輸紀錄器通訊訊號強度","淹水感測器","其他","dBm"
"3da78f80-d46d-4a7e-a4a1-b961f4dc1e25","大溝村_大興宮","水利署（與縣市政府合建）","雲林縣政府水利處","3764900FL108YL33","雲林縣水林鄉，大溝分線","120.21017","23.567858","e6efbffc-850c-427d-b97f-91d83a56b7f3","直流電壓","大溝村_大興宮_電池電壓","記錄傳輸紀錄器充電電壓","淹水感測器","電力","V"
"723ad773-be30-4bbf-bc51-7d806034a053","小滾水19號旁","水利署（與縣市政府合建）","高雄市政府水利局","3972500RV1072","小滾水19號旁","120.3861","22.8779","200b09dc-de43-4913-bddc-0ce8f7907003","淹水深度","小滾水19號旁","小滾水19號旁","淹水感測器","淹水深度",""
"ebb587a8-1008-4b94-98b2-158a47b1ed3c","山上湖胡椒蝦","水利署（與縣市政府合建）","屏東縣政府水利處","3765300FL2021009","屏東縣林邊鄉永和路19號","120.5051","22.45641","3d44228c-3cf7-473b-8300-c74fb09bb692","淹水深度","山上湖胡椒蝦_淹水深度cm","監測淹水情況","淹水感測器","淹水深度","cm"
"d2a92ab6-1ac4-4911-8fc7-4ebc721a4d35","山上區-南175宏佳騰(編號97)","水利署（與縣市政府合建）","臺南市政府水利局","3952500FLTN095","南175宏佳騰","120.34418","23.089155","3de25b68-7f5d-4287-8dc2-48326c76993f","淹水深度","山上區-南175宏佳騰(編號97)","TNWG014","淹水感測器","","cm"
"fdf408b9-8fde-4270-8c9a-6213cd941f79","山上區-台鍍科技前(編號98)","水利署（與縣市政府合建）","臺南市政府水利局","3952500FLTN096","台鍍科技前","120.33254","23.108751","7279faf8-1ec3-4c32-aa36-9e2fc217eb92","淹水深度","山上區-台鍍科技前(編號98)","TNWG015","淹水感測器","","cm"
"711b539b-e507-4873-a125-f408b548aee5","大灣溝和強路口","水利署（與縣市政府合建）","桃園巿政府水務局(智慧防汛)","3802500FL1217029","","121.30928","24.963083","add6ce25-c503-4a63-a033-8b136644ccd3","淹水深度","大灣溝和強路口-F01-029-水位","路面淹水站","淹水感測器","淹水深度","cm"
"a0767cec-244d-4658-8cc8-014453b08cac","大興路、春日路口","水利署（與縣市政府合建）","桃園巿政府水務局(智慧防汛)","3802500FL1217003","","121.30912","25.01541","e83e8734-9487-4014-b037-8a03fbf3e24b","淹水深度","大興路、春日路口-F01-003-水位","路面淹水站","淹水感測器","淹水深度","cm"
"994f40bf-350f-48cb-88e8-81465ff05364","中山里_德興路","水利署（與縣市政府合建）","雲林縣政府水利處","3764900FL108YL57","雲林縣虎尾鎮，嘉南大圳濁幹線","120.43198","23.708342","19a44476-5317-4e3a-98b2-68e7fcfbe284","傳輸訊號強度","中山里_德興路_訊號強度","記錄傳輸紀錄器通訊訊號強度","淹水感測器","其他","dBm"
"8a7883c9-5ebe-4d56-aaef-694dac67b1b4","山鶯路與山鶯路130巷","水利署（與縣市政府合建）","桃園巿政府水務局(智慧防汛)","3802500FL1217107","","121.32445","24.98908","71fa50a5-96b6-4b7e-866e-5ad2a2d62381","淹水深度","山鶯路與山鶯路130巷-F07-008-水位","路面淹水站","淹水感測器","淹水深度","cm"
"994f40bf-350f-48cb-88e8-81465ff05364","中山里_德興路","水利署（與縣市政府合建）","雲林縣政府水利處","3764900FL108YL57","雲林縣虎尾鎮，嘉南大圳濁幹線","120.43198","23.708342","a6cc0869-e9e7-436e-9989-f0568196c626","淹水深度","中山里_德興路_淹水深度","定點量測路面淹水深度","淹水感測器","淹水深度","cm"
"c84f845b-9bf8-4989-b6c4-7f9ba1523490","山鶯路195號","水利署（與縣市政府合建）","桃園巿政府水務局(智慧防汛)","3802500FL1217109","","121.33077","24.9806","ab060d48-f91f-47fa-b581-c3489580052c","淹水深度","山鶯路195號-F07-010-水位","路面淹水站","淹水感測器","淹水深度","cm"
"67db103e-d961-4e54-a66d-7ae8884e3f4a","山鶯路興業路口","水利署（與縣市政府合建）","桃園巿政府水務局(智慧防汛)","3802500FL1217108","","121.3263","24.98684","be009113-daba-4b84-8699-f8c6a98f72dc","淹水深度","山鶯路興業路口-F07-009-水位","路面淹水站","淹水感測器","淹水深度","cm"
"f837f028-5936-4dd9-a1d3-0b93f6faeb2b","中山東路二段路燈010102","水利署（與縣市政府合建）","桃園巿政府水務局(智慧防汛)","3802500FL1217051","","121.24176","24.950241","e3893b30-862b-4f54-8cd5-bfbbd04c7f29","淹水深度","中山東路二段路燈010102-F02-022-水位","中山東路二段路燈010102-F02-022-水位","淹水感測器","","cm"
"45dd9c0e-c139-420b-b037-c733e9cacd0c","中山西路與青年路口","水利署（與縣市政府合建）","高雄市政府水利局","3972500FL0028","鳳山區中山西路與青年路口","120.349304","22.627773","ede19027-6d74-4e6e-ae07-160fb91465d6","淹水深度","中山西路與青年路口_淹水感測器","路面淹水水深量測，作為積淹水警戒","淹水感測器","淹水深度","cm"
"c206e5c3-fdaf-4890-b3db-d5b320b8dc07","中山路裕和街口","水利署（與縣市政府合建）","桃園巿政府水務局(智慧防汛)","3802500FL1217024","","121.27466","24.98079","0e480ce6-04af-4e2a-be78-021f6194571c","淹水深度","中山路裕和街口-F01-024-水位","路面淹水站","淹水感測器","淹水深度","cm"
"3f4c53aa-e118-4dad-accf-61f59069ed57","中山東路三段429巷","水利署（與縣市政府合建）","桃園巿政府水務局(智慧防汛)","3802500FL1217053","","121.253075","24.938974","3990b282-319c-4083-a81d-25a9e9136924","淹水深度","中山東路三段429巷-F02-024-水位","路面淹水站","淹水感測器","淹水深度","cm"
"73695c18-ecb7-42a0-8387-124b61f90951","中山區新建里成功二路125號","水利署（與縣市政府合建）","基隆市政府水利科","3765700FL0038","","121.73563","25.130928","601313d7-b79e-410c-b03f-dafe1018a430","淹水深度","中山區新建里成功二路125號淹水深度","淹水高度量測(高度0時每3HR回傳>5-30_cm每10MIN回傳<30cm每5MIN回傳)","淹水感測器","淹水深度","cm"
"e58fa0fb-4562-4409-ae6b-d79d00f5b352","中山路與大同路口","水利署（與縣市政府合建）","新竹市政府消防局","3765800FL00039","新竹市中山路與大同路口","120.96778","24.805887","6a612ff0-0a13-4836-a8ba-4351b74ab67a","淹水深度","中山路與大同路口淹水高度","淹水高度量測; =0CM:1hr回傳1筆; <30cm:10min傳1筆 ;>30cm:5min傳1筆)","淹水感測器","淹水深度","cm"
"053c0377-f887-4873-a075-956b13aa0ea3","中山路一段1065巷39號","水利署（與縣市政府合建）","桃園巿政府水務局(智慧防汛)","3802500FL1217146","","121.10801","25.028788","848401f9-7de3-484a-aa0b-28bfae47d826","淹水深度","中山路一段1065巷39號-F12-701-水位","路面淹水站","淹水感測器","淹水深度","cm"
"ea4ce5bc-1e32-4810-97b4-ab4711c3cb6f","中正國小","水利署（與縣市政府合建）","彰化縣政府水資處","3764700FL0019033","526彰化縣二林鎮建興街80號(中正國小)","120.37026","23.897821","89b22faf-4815-49f0-889b-c481a5635bcc","淹水深度","中正國小淹水高度","淹水高度量測(高度0時每1HR回傳>5cm每5MIN回傳<10cm每10MIN回傳)","淹水感測器","淹水深度","cm"
"fa62d192-06aa-4c5b-acfc-4d6a21d00b99","中山區太白里光華路19號","水利署（與縣市政府合建）","基隆市政府水利科","3765700FL0027","","121.744644","25.15263","8c973ea3-8286-44d2-9468-dba9ccfa556e","淹水深度","中山區太白里光華路19號淹水深度","淹水高度量測(高度0時每3HR回傳>5-30_cm每10MIN回傳<30cm每5MIN回傳)","淹水感測器","淹水深度","cm"
"31997ba6-aca1-4936-a7c4-9795c0460b78","中山區西定里西定國小","水利署（與縣市政府合建）","基隆市政府水利科","3765700FL0042","","121.732605","25.136602","a05919d4-3f59-4079-afd3-86075777a8c4","淹水深度","中山區西定里西定國小淹水深度","淹水高度量測(高度0時每3HR回傳>5-30_cm每10MIN回傳<30cm每5MIN回傳)","淹水感測器","淹水深度","cm"
"6e327c79-aac0-445f-9e17-12a0a7622140","中山區西華里西定路130號","水利署（與縣市政府合建）","基隆市政府水利科","3765700FL0002","","121.734726","25.134418","a29940d9-3803-4701-a641-70ff5fd8ee41","淹水深度","中山區西華里西定路130號淹水深度","淹水高度量測(高度0時每3HR回傳>5-30_cm每10MIN回傳<30cm每5MIN回傳)","淹水感測器","淹水深度","cm"
"c13650ef-b76e-4623-9110-c14445d0cc51","中山區通化里復旦路中山二路口","水利署（與縣市政府合建）","基隆市政府水利科","3765700FL0030","","121.73914","25.144958","b57bfa44-3058-4f32-8428-584374772054","淹水深度","中山區通化里復旦路中山二路口淹水深度","淹水高度量測(高度0時每3HR回傳>5-30_cm每10MIN回傳<30cm每5MIN回傳)","淹水感測器","淹水深度","cm"
"23507665-1a1f-443a-b63d-ba6332532136","中山東路三段18號","水利署（與縣市政府合建）","桃園巿政府水務局(智慧防汛)","3802500FL1217049","","121.24682","24.946045","e335bafd-4db5-4412-ae1e-8121d1a76995","淹水深度","中山東路三段18號-F02-020-水位","路面淹水站","淹水感測器","淹水深度","cm"
"63b669e2-5e79-4d34-9628-bcbdf7527198","中山區德和里德和公園","水利署（與縣市政府合建）","基隆市政府水利科","3765700FL0001","","121.72683","25.146322","e93bf051-b67f-46b9-ac63-e998b4ef3297","淹水深度","中山區德和里德和公園淹水深度","淹水高度量測(高度0時每3HR回傳>5-30_cm每10MIN回傳<30cm每5MIN回傳)","淹水感測器","淹水深度","cm"
"9d24e8db-7e08-4d86-adb7-68e6e50d9a13","中正路延平路-2","水利署（與縣市政府合建）","桃園巿政府水務局(智慧防汛)","3802500FL1217070","","121.22088","24.955658","36b73782-d456-42c6-8c50-4153d93d60a6","淹水深度","中正路延平路-2-F02-041-水位","路面淹水站","淹水感測器","淹水深度","cm"
"0f0b284f-4e2f-42d0-9aa6-6c6af844c2c3","中正東路一段840巷","水利署（與縣市政府合建）","桃園巿政府水務局(智慧防汛)","3802500FL1217099","","121.21984","25.04455","3f611d40-8308-4dda-a4a7-eff9b8841beb","淹水深度","中正東路一段840巷-F06-701-水位","路面淹水站","淹水感測器","淹水深度","cm"
"3294ec38-74b8-4d8c-bb3e-832c3fff14d0","中正路延平路-1","水利署（與縣市政府合建）","桃園巿政府水務局(智慧防汛)","3802500FL1217069","","121.21892","24.954987","43a477f4-d6d9-46ea-a0e5-cae8621199ca","淹水深度","中正路延平路-1-F02-040-水位","路面淹水站","淹水感測器","淹水深度","cm"
"3144988e-7829-47fc-95e6-8ad07c2f8d49","中正區真砂里祥豐街39巷23號","水利署（與縣市政府合建）","基隆市政府水利科","3765700FL0034","","121.761665","25.142242","4924cec5-3d43-45a7-bb15-1570e8bfdbb9","淹水深度","中正區真砂里祥豐街39巷23號淹水深度","淹水高度量測(高度0時每3HR回傳>5-30_cm每10MIN回傳<30cm每5MIN回傳)","淹水感測器","淹水深度","cm"
"d7bf8718-8db2-416f-9361-44379e9d99c2","中正公園","水利署（與縣市政府合建）","桃園巿政府水務局(智慧防汛)","3802500FL1217063","","121.225845","24.958632","4ea6ac30-ff72-4bf4-9ba7-348b0c0faad8","淹水深度","中正公園-F02-034-水位","中正公園-F02-034-水位","淹水感測器","","cm"
"0f4618c1-d238-49cc-baab-a9520ddc5b1e","中正路400巷","水利署（與縣市政府合建）","高雄市政府水利局","3972500RV1046","中正路400巷","120.36222","22.66942","5eb3eda5-d0e2-4d1e-8a93-d6f75ae88c45","淹水深度","中正路400巷","中正路400巷","淹水感測器","淹水深度","cm"
"0b3a6094-4c40-443a-96d0-feab8eea9a74","中正區真砂里中正路318巷33號","水利署（與縣市政府合建）","基隆市政府水利科","3765700FL0043","","121.7623","25.142153","5fdd7e3e-0f32-42af-9a36-e21230baf850","淹水深度","中正區真砂里中正路318巷33號淹水深度","淹水高度量測(高度0時每3HR回傳>5-30_cm每10MIN回傳<30cm每5MIN回傳)","淹水感測器","淹水深度","cm"
"1df04753-2129-4375-ae61-1e6f82e9a7f7","中正一路與建民路口","水利署（與縣市政府合建）","高雄市政府水利局","3972500FL0021","苓雅區中正一路與建民路口","120.33369","22.628355","79d5701c-6fb7-495f-a531-6a46972954c2","淹水深度","中正一路與建民路口_淹水感測器","路面淹水水深量測，作為積淹水警戒","淹水感測器","淹水深度","cm"
"dc1c1245-3458-4f54-8dea-0b46e224e653","中正西路1742號","水利署（與縣市政府合建）","新竹縣政府水利科","3764400FL0008","中正西路1742號","120.95507","24.8419","9ac7d241-242f-4ecf-9399-366d9826b099","淹水深度","中正西路1742號","淹水高度量測(高度5cm以下每1HR回傳、5cm每10MIN回傳)","淹水感測器","淹水深度","cm"
"d1df76ee-7b00-49b1-9250-a46f37d2f462","中正區港通里義一路信五路口","水利署（與縣市政府合建）","基隆市政府水利科","3765700FL0011","","121.74673","25.13452","b027784c-16f8-4c5c-99f5-ed6a0ec2bf61","淹水深度","中正區港通里義一路信五路口淹水深度","淹水高度量測(高度0時每3HR回傳>5-30_cm每10MIN回傳<30cm每5MIN回傳)","淹水感測器","淹水深度","cm"
"acd07d9c-a3c2-4295-8023-3055c27a96b5","中正路三林段216巷","水利署（與縣市政府合建）","桃園巿政府水務局(智慧防汛)","3802500FL1217129","","121.22841","24.84906","db6382f1-f4ed-4175-bc43-db2a5b52428c","淹水深度","中正路三林段216巷-F09-702-水位","路面淹水站","淹水感測器","淹水深度","cm"
"1c7086c0-42bd-492e-bcb5-889dd65605f7","中正東路麥當勞","水利署（與縣市政府合建）","桃園巿政府水務局(智慧防汛)","3802500FL1217098","","121.202225","25.06202","ffeb4cf7-ca1f-476a-91b4-d15f2b8351f7","淹水深度","中正東路麥當勞-F06-001-水位","路面淹水站","淹水感測器","淹水深度","cm"
"9b9bc4a1-228e-4e08-9d4a-f94f8718afe0","中西區-海安路二段302巷(編號99)","水利署（與縣市政府合建）","臺南市政府水利局","3952500FLTN097","海安路二段302巷","120.19825","22.99888","10604d07-c601-4528-8bc5-689c64c5362c","淹水深度","中西區-海安路二段302巷(編號99)","TNWG016","淹水感測器","","cm"
"8e1c7fe6-9cf4-4922-8268-520ecd8af8ea","永康區-中正路高速公路下(編號229)","水利署（與縣市政府合建）","臺南市政府水利局","3952500FLTN240","開山路58號與府中街98巷口","120.20624","22.990541","191da9c9-ce6f-4a14-9b74-46711498f10e","淹水深度","中西區-開山路58號與府中街98巷口(編號102)","TNWG019","淹水感測器","淹水深度","cm"
"f035ce6b-3e97-4105-9631-3399107b95f9","中西區-六合境清水寺(編號101)","水利署（與縣市政府合建）","臺南市政府水利局","3952500FLTN099","六合境清水寺","120.20618","22.99172","305bede7-1b72-45fc-b020-f8ff8181de3f","淹水深度","中西區-六合境清水寺(編號101)","TNWG018","淹水感測器","","cm"
"9d8a7f27-374a-4cb6-9291-543f408e113e","中正路延平路-4","水利署（與縣市政府合建）","桃園巿政府水務局(智慧防汛)","3802500FL1217072","","121.221794","24.953358","33c29c18-0847-4d87-b501-7ff36be29b2c","淹水深度","中正路延平路-4-F02-043-水位","路面淹水站","淹水感測器","淹水深度","cm"
"b677ad32-6113-45f3-a89e-ed9f74cdccd9","中西區-忠義路一段與南寧街口(編號103)","水利署（與縣市政府合建）","臺南市政府水利局","3952500FLTN101","忠義路一段&南寧街","120.20178","22.98504","588b8d9d-15ef-4858-a5f3-9a908ce87ec3","淹水深度","中西區-忠義路一段與南寧街口(編號103)","TNWG020","淹水感測器","","cm"
"290bb38d-6bf3-47c3-a203-feb6d3cc15d6","中西區-臨安路跟民權路路口(編號273)","水利署（與縣市政府合建）","臺南市政府水利局","3952500FL101","","120.18973","22.998455","7edc1120-7b1c-4c07-afe2-4142100ab94b","淹水深度","中西區-臨安路跟民權路路口(編號273)","TSIOT040","淹水感測器","淹水深度","cm"
"28c640b5-8540-43f8-91d6-33c0b40eb18d","中西區-友愛街261號(編號100)","水利署（與縣市政府合建）","臺南市政府水利局","3952500FLTN098","友愛街261號","120.1964","22.99198","d672c097-850e-4002-b30e-f5acde30335b","淹水深度","中西區-友愛街261號(編號100)","TNWG017","淹水感測器","","cm"
"7158a8e2-0f31-4467-85c5-4809eae8d588","中林路全聯門口","水利署（與縣市政府合建）","屏東縣政府水利處","3765300FL2021008","屏東縣林邊鄉中林路285號","120.51948","22.438543","1e591711-57d0-408e-8620-0c81e4338bf4","淹水深度","中林路_淹水深度cm","監測淹水情況","淹水感測器","淹水深度","cm"
"2d639661-1dbd-44d2-be68-9812e5a5dcbc","永和區水源路62號","水利署（與縣市政府合建）","新北市政府水利局(智慧防汛)","3822500FL0061","235新北市中和區水源路62號","121.509285","25.004017","230befe7-7fed-4932-b7fd-0edcd1127bed","淹水深度","中和區水源路62號","淹水高度量測","淹水感測器","淹水深度","cm"
"33585158-d554-4f18-9035-ef6960f4cb05","中和區中山路3段109號","水利署（與縣市政府合建）","新北市政府水利局(智慧防汛)","3822500FL0051","235新北市中和區中山路3段109號","121.47481","25.005919","71dfb021-12f1-4478-a5c7-2aad8e605429","淹水深度","中和區中山路3段109號","淹水高度量測","淹水感測器","淹水深度","cm"
"5185a818-5028-45c6-9e86-dbe7a4d3d60b","中和街地下道","水利署（與縣市政府合建）","新竹縣政府水利科","3764400FL0009","中和街地下道","121.01343","24.845688","9836ecef-0fda-4ce8-b0c7-d6a00c05254e","淹水深度","中和街地下道","淹水高度量測(高度5cm以下每1HR回傳、5cm每10MIN回傳)","淹水感測器","淹水深度","cm"
"7c2bb79e-e634-4d06-a37d-5055e5b15767","中和區民享街86巷2號","水利署（與縣市政府合建）","新北市政府水利局(智慧防汛)","3822500FL0064","235新北市中和區民享街86巷2號","121.47446","25.001009","a6a1b558-b587-42a4-9751-1c87d4bbada9","淹水深度","中和區民享街86巷2號","淹水高度量測","淹水感測器","淹水深度","cm"
"bc260814-4670-49fc-abab-b5f4f3135778","中油三富站","水利署（與縣市政府合建）","桃園巿政府水務局(智慧防汛)","3802500FL1217039","","121.24927","24.957905","c510dbed-0f1d-4fd6-943d-fd70958ad7bc","淹水深度","中油三富站-F02-010-水位","路面淹水站","淹水感測器","淹水深度","cm"
"9ff9d356-ffa1-4d73-abc4-5e790f67648b","中和路101~95號","水利署（與縣市政府合建）","桃園巿政府水務局(智慧防汛)","3802500FL1217068","","121.22662","24.954302","d8b3d6f0-756a-4e0a-9172-eab402d71489","淹水深度","中和路101~95號-F02-039-水位","路面淹水站","淹水感測器","淹水深度","cm"
"f8b8e6d9-a323-4358-aa11-c76b80e37702","中和區忠孝街2號","水利署（與縣市政府合建）","新北市政府水利局(智慧防汛)","3822500FL0067","235新北市中和區忠孝街2號","121.50916","24.98303","e6353544-0d60-4e2b-b56d-0586bd3e359f","淹水深度","中和區忠孝街2號","淹水高度量測","淹水感測器","淹水深度","cm"
"7e39e01e-6118-4816-8d1d-3d5b53880db3","中清路一段360號","水利署（與縣市政府合建）","新竹市政府消防局","3765800FL00067","中清路一段360號","120.92996","24.832283","18f0a47f-693d-4012-85a2-9f938f1dae63","淹水深度","中清路一段360號淹水深度","淹水高度量測;=0CM:1hr回傳1筆;<10cm:5min傳1筆;>10cm:5min傳1筆)","淹水感測器","淹水深度","cm"
"20a0bd89-ab33-46b8-a2cb-acf803d8d36f","中清路一段與延平路三段392巷口","水利署（與縣市政府合建）","新竹市政府消防局","3765800FL00029","新竹市中清路一段與延平路三段392巷口","120.932655","24.83597","2b587529-6514-4617-9e84-fc1b292e8ee2","淹水深度","中清路一段與延平路三段392巷口淹水高度","淹水高度量測; =0CM:1hr回傳1筆; <30cm:10min傳1筆 ;>30cm:5min傳1筆)","淹水感測器","淹水深度","cm"
"4958ecff-7a87-4630-ad46-bc7698269fb6","F02-014 中華路二段367巷","水利署（與縣市政府合建）","桃園巿政府水務局(智慧防汛)","3802500FL1217043","","121.23624","24.96422","6a1810bb-b7a1-4142-b321-259911ad0e76","淹水深度","中華路二段367巷-F02-014-水位","路面淹水站","淹水感測器","淹水深度","cm"
"4cd9a555-a97b-4625-a163-378043c483df","中區精武路40巷與進德路口","水利署（與縣市政府合建）","台中市政府水利局","3872500FL0099","401臺中市中區精武路40巷與進德路口","120.69251","24.146275","7a4c8ebc-27cd-4bbd-8cc0-89e81e17851b","淹水深度","中區精武路40巷與進德路口淹水深度","淹水高度量測(高度0時每1HR回傳>30cm每5MIN回傳<30cm每10MIN回傳)","淹水感測器","淹水深度","cm"
"249f4ead-511c-4c17-8d9b-43f9253f6225","中區東協廣場","水利署（與縣市政府合建）","台中市政府水利局","3872500FL0198","400臺中市中區東協廣場","120.6842","24.13906","906ee83c-80d8-4aa2-a2ec-2ef19587573c","淹水深度","中區東協廣場淹水深度","淹水高度量測(高度0時每1HR回傳>30cm每5MIN回傳<30cm每25MIN回傳)","淹水感測器","淹水深度","cm"
"73e2cd1e-d2c5-4c83-a7f1-e2810fb92c8c","中清路18巷57號","水利署（與縣市政府合建）","新竹市政府消防局","3765800FL00063","中清路18巷57號","120.93697","24.838518","9c58ea3a-a3a5-4dbf-8063-772d64f26080","淹水深度","中清路18巷57號淹水深度","淹水高度量測;=0CM:1hr回傳1筆;<10cm:5min傳1筆;>10cm:5min傳1筆)","淹水感測器","淹水深度","cm"
"c227f6dd-f3d4-4cce-bb38-74a125ecf56c","中區自由二路135號","水利署（與縣市政府合建）","台中市政府水利局","3872500FL0128","400臺中市中區自由二路135號","120.68405","24.141905","bf45ac0e-a572-4c87-800e-be5d682db194","淹水深度","中區自由二路135號淹水深度","淹水高度量測(高度0時每1HR回傳>30cm每5MIN回傳<30cm每19MIN回傳)","淹水感測器","淹水深度","cm"
"a6f30456-ae86-4f9f-a56d-4fcb56963b07","中都街69巷","水利署（與縣市政府合建）","高雄市政府水利局","3972500RV1053","中都街69巷","120.28544","22.63987","ef4c5775-acf9-41a2-8ae8-34006710acbd","淹水深度","中都街69巷","中都街69巷","淹水感測器","淹水深度","cm"
"001e54c7-2502-4229-b5dc-2e4d77a3d68b","中福路與中光路口","水利署（與縣市政府合建）","新竹市政府消防局","3765800FL00064","中福路與中光路口","120.93429","24.839981","0bc3b3fc-301c-44b9-8ee8-0db7134b09e9","淹水深度","中福路與中光路口淹水深度","淹水高度量測;=0CM:1hr回傳1筆;<10cm:5min傳1筆;>10cm:5min傳1筆)","淹水感測器","淹水深度","cm"
"6cb28e5a-90d6-472f-bec3-655d251ff393","中華路四段411巷鐵道下","水利署（與縣市政府合建）","新竹市政府消防局","3765800FL00014","中華路四段411巷鐵道下","120.94187","24.791214","2060ae82-e8fa-4762-8cf1-d8a4ff14ec89","淹水深度","中華路四段411巷鐵道下淹水高度","淹水高度量測 =0CM:1hr回傳1筆 <30cm:10min傳1筆 >30cm:5min傳1筆)","淹水感測器","淹水深度","cm"
"b313aa48-03ca-4cd1-9249-b1b18e273936","中華路-鳳仁路口","水利署（與縣市政府合建）","高雄市政府水利局","3972500FL0044","仁武區中華路-鳳仁路口","120.34754","22.697763","30f39213-5e45-469a-97b1-373fd0626f61","淹水深度","中華路-鳳仁路口_淹水感測器","路面淹水水深量測，作為積淹水警戒","淹水感測器","淹水深度","cm"
"25069e1c-1617-403d-a721-ab834ec02ab8","中華社區(後勁溪旁)","水利署（與縣市政府合建）","高雄市政府水利局","3972500FL0045","仁武區中華社區(後勁溪旁)","120.328705","22.709173","41a72e63-af40-455e-b857-2e4ee3419b30","淹水深度","中華社區(後勁溪旁)_淹水感測器","路面淹水水深量測，作為積淹水警戒","淹水感測器","淹水深度","cm"
"8bbcd7aa-14f1-4823-9fd3-9c162db45958","中華路、民族路口","水利署（與縣市政府合建）","桃園巿政府水務局(智慧防汛)","3802500FL1217011","","121.309784","24.990688","59a16eba-70a9-4f14-ad55-66df79ce5d7a","淹水深度","中華路、民族路口-F01-011-水位","路面淹水站","淹水感測器","淹水深度","cm"
"61098407-f98a-4435-8116-fd8559df4970","中華路4段與牛埔南路口","水利署（與縣市政府合建）","新竹市政府消防局","3765800FL00072","中華路4段與牛埔南路口","120.930046","24.788736","5a1af8ae-045c-42f3-bd20-4d698a5dc113","淹水深度","中華路4段與牛埔南路口淹水深度","淹水高度量測;=0CM:1hr回傳1筆;<10cm:5min傳1筆;>10cm:5min傳1筆)","淹水感測器","淹水深度","cm"
"16ab03b7-e534-4e89-82be-93af43cf1086","中華路一段340號巷口","水利署（與縣市政府合建）","新竹市政府消防局","3765800FL00041","中華路一段340號巷口","120.987335","24.81138","70718660-a4dc-4282-b425-bb9f74b22ae4","淹水深度","中華路一段340號巷口淹水高度","淹水高度量測; =0CM:1hr回傳1筆; <30cm:10min傳1筆 ;>30cm:5min傳1筆)","淹水感測器","淹水深度","cm"
"ec22732f-1084-420d-ae57-41d0f786c467","F02-008 中華路、自強一路口","水利署（與縣市政府合建）","桃園巿政府水務局(智慧防汛)","3802500FL1217037","","121.24456","24.967302","86c3a7e9-f472-400c-996c-2b202bd308f2","淹水深度","中華路、自強一路口-F02-008-水位","路面淹水站","淹水感測器","淹水深度","cm"
"b954aa44-a3ed-4fe8-9a1d-c5e439c25e64","中壢圖書館-1","水利署（與縣市政府合建）","桃園巿政府水務局(智慧防汛)","3802500FL1217058","","121.224686","24.959076","382848ac-ab89-4091-b467-8d5aeb1ce62a","淹水深度","中壢圖書館-1-F02-029-水位","中壢圖書館-1-F02-029-水位","淹水感測器","","cm"
"d360f98b-b4fd-4607-96a3-05ba8d5e3966","中興村_一山環保工程","水利署（與縣市政府合建）","雲林縣政府水利處","3764900FL108YL60","雲林縣麥寮鄉，新吉中排線","120.243866","23.799368","5a984016-05ab-499d-af03-e33b418348eb","淹水深度","中興村_一山環保工程_淹水深度","定點量測路面淹水深度","淹水感測器","淹水深度","cm"
"4354b33c-1f98-45d3-a3d1-0c4be64d907b","中壢圖書館-2","水利署（與縣市政府合建）","桃園巿政府水務局(智慧防汛)","3802500FL1217059","","121.22767","24.957926","6413b595-b54c-473f-ac59-bde1030bb4a2","淹水深度","中壢圖書館-2-F02-030-水位","路面淹水站","淹水感測器","淹水深度","cm"
"58d389ad-82ad-448d-aa8a-468993e83cc6","五汴村1","水利署（與縣市政府合建）","彰化縣政府水資處","3764700FL1110050","彰化縣永靖鄉五汴村永靖鄉中山路三段190巷口","120.554695","23.932795","6aa5b69a-9959-42fc-ba17-ba56c4add936","淹水深度","五汴村1淹水高度淹水深度","淹水高度量測(高度0時每1HR回傳>30cm每5MIN回傳<30cm每10MIN回傳)","淹水感測器","淹水深度","cm"
"a45cf1e9-3861-4766-8e03-33e546dae74c","中豐路山頂段244號","水利署（與縣市政府合建）","桃園巿政府水務局(智慧防汛)","3802500FL1217138","","121.21081","24.89852","8acc6656-0bdf-4f6e-9929-eba9cf74359e","淹水深度","中豐路山頂段244號-F10-009-水位","路面淹水站","淹水感測器","淹水深度","cm"
"8d346b7a-438a-4cf0-a6f2-319756296a06","中豐路南勢段2段460巷","水利署（與縣市政府合建）","桃園巿政府水務局(智慧防汛)","3802500FL1217135","","121.20931","24.907724","d21dc82f-34ff-49c8-9289-dac71802458d","淹水深度","中豐路南勢段2段460巷-F10-006-水位","路面淹水站","淹水感測器","淹水深度","cm"
"da0d2a6b-199d-4c02-8328-6a6ec29417ba","五股區疏洪六路/疏洪一路交叉路口","水利署（與縣市政府合建）","新北市政府水利局(智慧防汛)","3822500FL0009","248新北市五股區疏洪六路/疏洪一路交叉路口","121.45605","25.0781","3c52d293-61a4-450d-9616-094b0946ddca","淹水深度","五股區疏洪六路/疏洪一路交叉路口","淹水高度量測","淹水感測器","淹水深度","cm"
"51bbb02b-89e2-42de-99e0-a21f02d0aa78","五股區五股區工商路1號","水利署（與縣市政府合建）","新北市政府水利局(智慧防汛)","3822500FL0005","248新北市五股區工商路1號","121.43981","25.082335","82d01f71-efc6-40be-9f66-771ff0c56237","淹水深度","五股區五股區工商路1號","淹水高度量測","淹水感測器","淹水深度","cm"
"71ed9cb3-822a-4026-91d2-65b8eb2dbcc4","五股區疏洪一路1K+300","水利署（與縣市政府合建）","新北市政府水利局(智慧防汛)","3822500FL0027","248新北市五股區二重疏洪道(疏洪一路1K+300)","121.45188","25.08544","bd41bfb1-5ba1-4667-934f-a6615fb7482a","淹水深度","五股區疏洪一路1K+300","淹水高度量測","淹水感測器","淹水深度","cm"
"2cc05720-bb21-48ae-99a1-a1b4d0383795","五股區中興路4段54號","水利署（與縣市政府合建）","新北市政府水利局(智慧防汛)","3822500FL0001","248新北市五股區中興路4段54號前","121.43769","25.08307","bd5dfc29-7511-4aa3-ac98-54eee95de763","淹水深度","五股區中興路4段54號","淹水高度量測","淹水感測器","淹水深度","cm"
"1b4379fa-69f6-4b6f-97a0-719cca1eb19b","五股區疏洪一路五方福德宮前","水利署（與縣市政府合建）","新北市政府水利局(智慧防汛)","3822500FL0017","248新北市五股區疏洪一路五方福德宮前","121.4533","25.082762","c39e3a3c-394a-49d3-be60-135bf9c1cb4b","淹水深度","五股區疏洪一路五方福德宮前","淹水高度量測","淹水感測器","淹水深度","cm"
"32d9993f-b94f-47f9-8608-0c2429b70224","五股區疏洪八路/疏洪一路交叉路口","水利署（與縣市政府合建）","新北市政府水利局(智慧防汛)","3822500FL0029","248新北市五股區疏洪八路/疏洪一路交叉路口","121.45968","25.07232","dac2ec2b-0cc1-4335-8848-db3495619f14","淹水深度","五股區疏洪八路/疏洪一路交叉路口","淹水高度量測","淹水感測器","淹水深度","cm"
"80810e02-f1fa-47e0-86d6-ccf312e7db9e","五股區凌雲一段47號","水利署（與縣市政府合建）","新北市政府水利局(智慧防汛)","3822500FL0203","五股區凌雲一段47號","121.45169","25.100792","e3cfaf1a-4be4-4eac-be87-8498a36d99f5","淹水深度","五股區凌雲一段47號淹水感測高度","淹水高度量測(高度0cm時，每1hr回傳；>5cm，每1min回傳)","淹水感測器","淹水深度","cm"
"9a1d0dc0-2e2e-4fa9-8fe5-cd300cd1b8a7","五股區疏洪一路/疏洪四路交叉路口","水利署（與縣市政府合建）","新北市政府水利局(智慧防汛)","3822500FL0028","248新北市五股區疏洪一路和疏洪四路交叉路口","121.45533","25.09745","e4f67200-d091-4726-8dc7-3cc481263bac","淹水深度","五股區疏洪一路/疏洪四路交叉路口","淹水高度量測","淹水感測器","淹水深度","cm"
"1ed542b7-912e-42b0-86f0-2449784f036e","五股區德音國小","水利署（與縣市政府合建）","新北市政府水利局(智慧防汛)","3822500FL0008","248新北市五股區成泰路1段與明德路口（德音國小旁）","121.43574","25.071272","4b78f62f-ddf8-43a5-b775-05a22ee462ba","淹水深度","五股區德音國小","淹水高度量測","淹水感測器","淹水深度","cm"
"8e987959-7ab6-44d0-8cb1-24aba178f0de","仁愛區玉田里愛四路","水利署（與縣市政府合建）","基隆市政府水利科","3765700FL0026","","121.74331","25.12775","358d9961-8f43-4453-8660-54535019cc4a","淹水深度","仁愛區玉田里愛四路淹水深度","淹水高度量測(高度0時每3HR回傳>5-30_cm每10MIN回傳<30cm每5MIN回傳)","淹水感測器","淹水深度","cm"
"230911b8-8880-42b2-8375-2a444153bcf3","仁雄路近曹公新圳","水利署（與縣市政府合建）","高雄市政府水利局","3972500FL0009","仁武區仁雄路近曹公新圳","120.35013","22.680101","730c9310-4cf5-4bb9-83eb-f2f46a7c65a5","淹水深度","仁雄路近曹公新圳_淹水感測器","路面淹水水深量測，作為積淹水警戒","淹水感測器","淹水深度","cm"
"3ee61dfd-0508-439b-98bc-73b20f51f7fb","仁光路與仁雄路口","水利署（與縣市政府合建）","高雄市政府水利局","3972500FL0008","仁武區仁光路與仁雄路口","120.35163","22.681051","760a596b-bde5-4890-a9eb-d94f26c122e8","淹水深度","仁光路與仁雄路口_淹水感測器","路面淹水水深量測，作為積淹水警戒","淹水感測器","淹水深度","cm"
"e28de5f7-824d-43a2-8006-33ea648713ec","仁愛區玉田里仁一路愛四路口","水利署（與縣市政府合建）","基隆市政府水利科","3765700FL0014","","121.74473","25.129995","7b3ded6b-51aa-4410-8841-fc255756b4fd","淹水深度","仁愛區玉田里仁一路愛四路口淹水深度","淹水高度量測(高度0時每3HR回傳>5-30_cm每10MIN回傳<30cm每5MIN回傳)","淹水感測器","淹水深度","cm"
"8700163b-53bd-4f21-8b88-980ab9ec5dba","仁愛區光華里光一路口及華三街口","水利署（與縣市政府合建）","基隆市政府水利科","3765700FL0017","","121.73831","25.12679","91b245e8-af6f-4e9e-ac05-348d37ce0a64","淹水深度","仁愛區光華里光一路口及華三街口淹水深度","淹水高度量測(高度0時每3HR回傳>5-30_cm每10MIN回傳<30cm每5MIN回傳)","淹水感測器","淹水深度","cm"
"ae4dbbd1-7190-49c6-8f6b-8a09b7a934d7","五榔村_村落","水利署（與縣市政府合建）","雲林縣政府水利處","3764900FL109YL54","雲林縣臺西鄉，馬公厝大排水溝","120.22378","23.685282","bc0edc38-db30-4c87-9676-4a4cf95e1b48","淹水深度","五榔村_村落_淹水深度","定點量測路面淹水深度","淹水感測器","淹水深度","cm"
"912411da-21bc-4b6c-99f4-9683bce08c50","五福四路260巷","水利署（與縣市政府合建）","高雄市政府水利局","3972500RV1047","五福四路260巷","120.28128","22.62474","d516cdb7-a358-4770-8d93-6fc62836a655","淹水深度","五福四路260巷","五福四路260巷","淹水感測器","淹水深度","cm"
"ae4dbbd1-7190-49c6-8f6b-8a09b7a934d7","五榔村_村落","水利署（與縣市政府合建）","雲林縣政府水利處","3764900FL109YL54","雲林縣臺西鄉，馬公厝大排水溝","120.22378","23.685282","d5af0a31-e44f-4b61-8e0f-e2b99a0533af","直流電壓","五榔村_村落_電池電壓","記錄傳輸紀錄器充電電壓","淹水感測器","電力","V"
"87a6ae83-7555-4b2b-a198-3dc9e9af3ee2","仁愛區和明里愛七路1號","水利署（與縣市政府合建）","基隆市政府水利科","3765700FL0044","","121.749306","25.128101","3cdc15c7-5c81-4c4b-b289-e44a2c179a53","淹水深度","仁愛區和明里愛七路1號淹水深度","淹水高度量測(高度0時每3HR回傳>5-30_cm每10MIN回傳<30cm每5MIN回傳)","淹水感測器","淹水深度","cm"
"91393904-fda9-4d13-aef0-c53de23098fe","仁義路與文化街口","水利署（與縣市政府合建）","新竹市政府消防局","3765800FL00023","仁義路與文化街口","120.971245","24.805576","5ea0ee71-f783-4c48-9a66-199d9ad9da92","淹水深度","仁義路與文化街口淹水高度","淹水高度量測 =0CM:1hr回傳1筆 <30cm:10min傳1筆 >30cm:5min傳1筆)","淹水感測器","淹水深度","cm"
"1168cfa0-6b70-4439-b174-8bf7fdbe8624","仁愛區曲水里龍安街三坑車站下方涵洞","水利署（與縣市政府合建）","基隆市政府水利科","3765700FL0018","","121.74201","25.12323","8d739bad-d965-41be-bb9e-0b0a59d93ea2","淹水深度","仁愛區曲水里龍安街三坑車站下方涵洞淹水深度","淹水高度量測(高度0時每3HR回傳>5-30_cm每10MIN回傳<30cm每5MIN回傳)","淹水感測器","淹水深度","cm"
"ae35af86-5ad0-4fb6-a913-ddb5c221ed96","仁愛區花崗里仁一路107巷","水利署（與縣市政府合建）","基隆市政府水利科","3765700FL0049","","121.753174","25.127144","d434317b-3ac3-4e23-8735-14ab9c7a54d3","淹水深度","仁愛區花崗里仁一路107巷淹水深度","淹水高度量測(高度0時每3HR回傳>5-30_cm每10MIN回傳<30cm每5MIN回傳)","淹水感測器","淹水深度","cm"
"e3bdfd98-8462-45d6-8410-09c23f1cccaf","仁德區-二行里二行一路153巷16弄(編號254)","水利署（與縣市政府合建）","臺南市政府水利局","3952500FL082","","120.22415","22.919956","2efeaa95-acc6-4497-b5b7-ebb662f7f1ae","淹水深度","仁德區-二行里二行一路153巷16弄(編號254)","TSIOT021","淹水感測器","淹水深度","cm"
"0212b7a6-60eb-4d36-b29b-ec44c5527aab","仁德區-二行里行大街172巷17號(編號234)","水利署（與縣市政府合建）","臺南市政府水利局","3952500FLTN1084","二行里行大街172巷17號","120.218895","22.915411","4a74ed2a-d3c6-45df-9ece-233679c2f4dd","淹水深度","仁德區-二行里行大街172巷17號(編號234)","TSIOT001","淹水感測器","淹水深度","cm"
"ae30b200-8ac2-4f60-8252-e5dfd3cc777c","仁德區-86快速道路台1線機車道涵洞(編號11)","水利署（與縣市政府合建）","臺南市政府水利局","3952500FL0009","86快速道路台1線機車道涵洞","120.22397","22.931107","8ae96e23-4922-470e-9373-4fcd7f8dd85e","淹水深度","仁德區-86快速道路台1線機車道涵洞(編號11)","f009","淹水感測器","淹水深度","cm"
"0f495508-7e72-41d3-9489-ce1ae2d31846","仁德區-北上仁德交流道閘道下(編號10)","水利署（與縣市政府合建）","臺南市政府水利局","3952500FL0008","北上仁德交流道閘道下","120.248886","22.976807","136f6932-d88a-41b8-a7f2-2e335e247b89","淹水深度","仁德區-北上仁德交流道閘道下(編號10)","f008","淹水感測器","淹水深度","cm"
"9997e37d-ad83-4cd7-9341-ad6119583bac","仁德區-文華一街93號斜對面(編號248)","水利署（與縣市政府合建）","臺南市政府水利局","3952500FLTN1098","仁德區文華一街93號斜對面(醫專幹#41)","120.243065","22.960808","1b6a9cec-716a-4470-a6d5-741a63c99b97","淹水深度","仁德區-文華一街93號斜對面(編號248)","TSIOT015","淹水感測器","淹水深度","cm"
"d7bb27de-30c7-40ce-8b0c-a0379819b18a","仁德區-台1線(保安路一段到二仁路之間)(編號104)","水利署（與縣市政府合建）","臺南市政府水利局","3952500FLTN102","台1線(保安路一段到二仁路之間)","120.2238","22.92328","2ec626f7-0cdf-4884-bd6f-5260026bf9bd","淹水深度","仁德區-台1線(保安路一段到二仁路之間)(編號104)","TNWG021","淹水感測器","","cm"
"f9d10bbc-7000-4fa9-8ad9-e1067f08200d","仁德區-四維街8巷(編號58)","水利署（與縣市政府合建）","臺南市政府水利局","3952500FL0051","四維街8巷","120.25213","22.973646","5dcc98e1-9133-4f4d-ad4b-c5772bfcf9d8","淹水深度","仁德區-四維街8巷(編號58)","f051","淹水感測器","淹水深度","cm"
"b0ea92fc-750a-4ddb-a3c6-7d94b4bfa191","仁德區-正義二街中清二街口(編號56)","水利署（與縣市政府合建）","臺南市政府水利局","3952500FL0049","正義二街中清二街口","120.25448","22.97372","5e2b4dce-598c-4bbc-9d70-657319cdd7dc","淹水深度","仁德區-正義二街中清二街口(編號56)","f049","淹水感測器","淹水深度","cm"
"1abde62e-5f44-4066-b81c-2a1b6defbb8a","仁德區-中正路一段高速公路下(編號29)","水利署（與縣市政府合建）","臺南市政府水利局","3952500FL0027","中正路一段高速公路下","120.24945","22.941998","5eed4195-127e-401c-927e-25e6fd5bbb14","淹水深度","仁德區-中正路一段高速公路下(編號29)","f027","淹水感測器","淹水深度","cm"
"24494ba9-334d-464f-b210-9d75060bcde1","仁德區-中山路與中正二路口(編號112)","水利署（與縣市政府合建）","臺南市政府水利局","3952500FLTN110","中山路(鄰近中正二路)一帶","120.251595","22.971735","836202df-94bd-4dd7-8a59-07a7fd41b486","淹水深度","仁德區-中山路與中正二路口(編號112)","TNWG029","淹水感測器","","cm"
"b14dfe20-e831-451a-9664-627c9e685d26","仁德區-三甲里活動中心前(編號109)","水利署（與縣市政府合建）","臺南市政府水利局","3952500FLTN107","仁德區三甲里潭稅橋涵洞","120.23647","22.932673","895630e3-9416-4465-a1e0-becc3aa3c795","淹水深度","仁德區-三甲里活動中心前(編號109)","TNWG026","淹水感測器","","cm"
"166d41f0-5a3f-44ea-8c2d-4b312387d652","仁德區-中正路三段太乙路口(編號59)","水利署（與縣市政府合建）","臺南市政府水利局","3952500FL0052","中正路三段太乙路口","120.25725","22.981714","930cab8e-792e-4b9a-9688-bc9734ab2567","淹水深度","仁德區-中正路三段太乙路口(編號59)","f052","淹水感測器","淹水深度","cm"
"a1bf9fc5-e2de-4ddd-8f95-2c28afb4def7","仁德區-太乙二街11號前(編號57)","水利署（與縣市政府合建）","臺南市政府水利局","3952500FL0050","太乙二街11號前","120.25378","22.980833","a2dac3df-0c7b-4cbe-9ecd-d9c4dc885599","淹水深度","仁德區-太乙二街11號前(編號57)","f050","淹水感測器","淹水深度","cm"
"fd5b3254-13e3-4653-9b40-6c65778ca89b","仁德區-中正西路360巷317號前(編號30)","水利署（與縣市政府合建）","臺南市政府水利局","3952500FL0028","中正西路360巷39號前","120.21746","22.922697","a3d4e523-b42d-4551-a207-8397266921cf","淹水深度","仁德區-中正西路360巷317號前(編號30)","f028","淹水感測器","淹水深度","cm"
"bde75801-503c-4349-b7a5-8a6d2a341561","仁德區-文山路149號前(編號105)","水利署（與縣市政府合建）","臺南市政府水利局","3952500FLTN103","文山路149號","120.24801","22.975525","a55b3f8d-da5a-466a-bb27-9b584b2f0a83","淹水深度","仁德區-文山路149號前(編號105)","TNWG022","淹水感測器","","cm"
"686aba35-2b92-4bab-b7bc-de807e4f36d3","仁德區-太乙三街46號前(編號15)","水利署（與縣市政府合建）","臺南市政府水利局","3952500FL0013","太乙三街46號前","120.252235","22.980642","ba287b3e-1257-4a75-83a8-f8bcac7d6f09","淹水深度","仁德區-太乙三街46號前(編號15)","f013","淹水感測器","淹水深度","cm"
"e955ca81-d145-4921-a663-b0962994fd62","仁德區-中正路二段1160巷口(編號115)","水利署（與縣市政府合建）","臺南市政府水利局","3952500FLTN113","中正路二段1160巷口","120.25184","22.97073","e9318efe-9034-4bf5-a626-d841a98118de","淹水深度","仁德區-中正路二段1160巷口(編號115)","TNWG032","淹水感測器","","cm"
"727d25ba-dbff-4481-ab26-cbcc11296c76","仁德區-太乙四街21巷口(編號31)","水利署（與縣市政府合建）","臺南市政府水利局","3952500FL0029","太乙四街21巷口","120.24983","22.988167","ea7b8ec7-193d-450e-b77c-bdec5bc6c99b","淹水深度","仁德區-太乙四街21巷口(編號31)","f029","淹水感測器","淹水深度","cm"
"6bed795d-efe6-4417-8aa5-8b644b9e6e90","仁德區-仁義路黃昏市場(編號113)","水利署（與縣市政府合建）","臺南市政府水利局","3952500FLTN111","仁義路(黃昏市場)","120.25436","22.968176","f21234b9-544d-48c0-853f-2f43c35b9034","淹水深度","仁德區-仁義路黃昏市場(編號113)","TNWG030","淹水感測器","","cm"
"a8e9a98a-e0f7-4fb2-b6e2-092ece41db44","仁德區-民安路二段與德糖路口(編號107)","水利署（與縣市政府合建）","臺南市政府水利局","3952500FLTN105","民安路二段與德糖路口","120.25457","22.951912","1f49829a-7a40-4b86-a9a7-05174dbcd1bd","淹水深度","仁德區-民安路二段與德糖路口(編號107)","TNWG024","淹水感測器","","cm"
"bb75fbd0-1a6f-41bf-a878-a53f01d0cea7","仁德區-保安路二段與田厝二街115巷口(編號106)","水利署（與縣市政府合建）","臺南市政府水利局","3952500FLTN104","保安路二段往田厝","120.24259","22.936766","23ef460c-13ba-4250-9d85-0156e619e2b4","淹水深度","仁德區-保安路二段與田厝二街115巷口(編號106)","TNWG023","淹水感測器","","cm"
"60e8ff40-e5ef-4460-bfec-6f62049b4f80","仁德區-民安路二段德善一、二街口(113之1號前)(編號237)","水利署（與縣市政府合建）","臺南市政府水利局","3952500FLTN1087","民安路二段德善一、二街口（113之1號前)","120.25503","22.951607","2cd7a2f2-5791-4bab-8225-4b66ab6440c1","淹水深度","仁德區-民安路二段德善一、二街口(113之1號前)(編號237)","TSIOT004","淹水感測器","淹水深度","cm"
"84164c93-2e74-43dc-ace1-9126e21bdbcb","仁德區-長興五街27-1號前(編號13)","水利署（與縣市政府合建）","臺南市政府水利局","3952500FL0011","長興五街27-1號前","120.25444","22.992306","55a14a0f-8e59-485c-aea6-6bfb0bc0c8d4","淹水深度","仁德區-長興五街27-1號前(編號13)","f011","淹水感測器","淹水深度","cm"
"bfa6bea8-1389-4a50-80c3-36518c53bc67","仁德區-新田路與民安路二段97巷巷口(編號272)","水利署（與縣市政府合建）","臺南市政府水利局","3952500FL100","新田路與民安路二段97巷巷口","120.2637","22.9539","5e91030f-503f-4fa6-b262-7f48ef31fabb","淹水深度","仁德區-新田路與民安路二段97巷巷口(編號272)","TSIOT039","淹水感測器","淹水深度","cm"
"479b94e3-009f-4c9c-ae56-451c51a47bbb","仁德區-行大街56巷3弄32號(編號271)","水利署（與縣市政府合建）","臺南市政府水利局","3952500FL099","","120.222176","22.916752","63421a20-83b2-41cc-b7fb-5e4e4655fffd","淹水深度","仁德區-行大街56巷3弄32號(編號271)","TSIOT038","淹水感測器","淹水深度","cm"
"eee92866-f2da-45c1-9d6d-7c0c2d466581","仁德區-忠義二街27號(編號236)","水利署（與縣市政府合建）","臺南市政府水利局","3952500FLTN1086","仁德區忠義二街27號","120.25748","22.977842","718092d3-b582-4acd-9bd9-3e378b35235a","淹水深度","仁德區-忠義二街27號(編號236)","TSIOT003","淹水感測器","淹水深度","cm"
"172d7022-2b9e-43f7-8b90-b9f383446110","仁德區-行大街172巷46號前(編號2)","水利署（與縣市政府合建）","臺南市政府水利局","3952500FL0001","行大街172巷46號前","120.219154","22.915644","96bc4c87-173d-41c8-8d50-ec16bbe2c51d","淹水深度","仁德區-行大街172巷46號前(編號2)","f001","淹水感測器","淹水深度","cm"
"64437952-48bb-4fd1-8f09-b654d2281fe8","仁德區-長興路87巷37弄6號旁(編號16)","水利署（與縣市政府合建）","臺南市政府水利局","3952500FL0014","長興路87巷37弄6號旁","120.25838","22.993418","a35f03fb-577a-4d9a-bb64-2e7a9685312c","淹水深度","仁德區-長興路87巷37弄6號旁(編號16)","f014","淹水感測器","淹水深度","cm"
"6b4bda54-9633-47dd-b0fa-2d73457ff08b","仁德區-長興一街54號旁(編號60)","水利署（與縣市政府合建）","臺南市政府水利局","3952500FL0053","長興一街54號旁","120.26363","22.993944","c8add99e-894f-406b-92a3-f171c4447dfd","淹水深度","仁德區-長興一街54號旁(編號60)","f053","淹水感測器","淹水深度","cm"
"4310af94-dfb7-4c55-b761-64d645a5e9cf","仁德區-新田里-263992路燈旁(編號249)","水利署（與縣市政府合建）","臺南市政府水利局","3952500FLTN1099","仁德區新田里-263992路燈旁","120.25609","22.954489","fb893f77-a7e0-4a41-8cdf-f28477e51a1e","淹水深度","仁德區-新田里-263992路燈旁(編號249)","TSIOT016","淹水感測器","淹水深度","cm"
"03a3712d-377f-4c04-8a82-35cec52a9d69","公園路、隆豐路口","水利署（與縣市政府合建）","高雄市政府水利局","3972500RV1061","公園路、隆豐路口","120.30614","22.755705","43fd5830-6a07-4aee-83cc-24a0d4cedd53","淹水深度","公園路、隆豐路口","公園路、隆豐路口","淹水感測器","淹水深度","cm"
"406205e4-4f5f-4d17-a365-090d1ecaadca","公道五路地下道","水利署（與縣市政府合建）","新竹市政府消防局","3765800FL00009","公道五路地下道","121.01343","24.79567","674cf4d1-228a-48f3-8dc8-7e649a5e93b6","淹水深度","公道五路地下道淹水高度","淹水高度量測 =0CM:1hr回傳1筆 <30cm:10min傳1筆 >30cm:5min傳1筆)","淹水感測器","淹水深度","cm"
"edf96338-2e02-4d09-933a-9f4a1e62477c","元帥廟附近(右昌街201號）","水利署（與縣市政府合建）","高雄市政府水利局","3972500RV1051","元帥廟附近(右昌街201號）","120.28908","22.71165","70e853bd-c12b-4c46-9c60-0606027205a9","淹水深度","元帥廟附近(右昌街201號）","元帥廟附近(右昌街201號）","淹水感測器","淹水深度","cm"
"b6e7a248-6656-456c-bb66-a480e52acfa2","六甲區-復興街與民生街街口(編號116)","水利署（與縣市政府合建）","臺南市政府水利局","3952500FLTN114","復興街、民生街口","120.35339","23.230223","409a540c-66a8-4a83-aa9c-9e1906c10b2e","淹水深度","六甲區-復興街與民生街街口(編號116)","TNWG033","淹水感測器","","cm"
"9779119e-a45a-4dde-b9a4-17756412ef05","六甲區-北極殿前(編號68)","水利署（與縣市政府合建）","臺南市政府水利局","TNIOT068","裕農街與忠孝街口(北極殿)","120.35455","23.22806","43158981-4dac-42d1-bedd-e632ab4f7f34","淹水深度","六甲區-北極殿前(編號68)","TNIOT068","淹水感測器","淹水深度","cm"
"027bd0ca-180b-4594-95f5-e9f071bc1a25","天府路一段","水利署（與縣市政府合建）","新竹市政府消防局","3765800FL00021","天府路一段","120.94278","24.834532","7ad3dbfb-dfa0-4a54-9e0f-7b406f40cc34","淹水深度","天府路一段淹水高度","淹水高度量測 =0CM:1hr回傳1筆 <30cm:10min傳1筆 >30cm:5min傳1筆)","淹水感測器","淹水深度","cm"
"2149b940-d142-4891-853b-a0ea7deae505","公館鄉尖山村1","水利署（與縣市政府合建）","苗栗縣政府水利處","3764500RVFL00021","苗栗縣公館鄉尖山村","120.837456","24.535875","9ee41c64-210a-480d-9e48-998a11084ddb","淹水深度","公館鄉尖山村1淹水高度","淹水高度量測(高度<5cm;每1小時回傳;5<高度<30cm;每10分鐘回傳;30cm<高度;每5分鐘回傳)","淹水感測器","淹水深度","cm"
"a434194e-6a45-4329-8ecd-ff4cb5c7e903","CYC063 六腳鄉崩山村","水利署（與縣市政府合建）","嘉義縣政府水利處","3765000FLCYC063","崩山村12號旁","120.22646","23.50381","a4e8d6e4-e92b-4a2d-9b09-df989b8d2d8e","淹水深度","CYC063 六腳鄉崩山村淹水深度","CYC063 六腳鄉崩山村淹水深度","淹水感測器","淹水深度","cm"
"39e0011e-0a50-418e-a82e-7c396a1e5179","CYC064 六腳鄉六腳村","水利署（與縣市政府合建）","嘉義縣政府水利處","3765000FLCYC064","六腳村49-5號旁","120.25198","23.50585","a5f128ca-0155-4bb3-a709-1bfe8cfce2da","淹水深度","CYC064 六腳鄉六腳村淹水深度","CYC064 六腳鄉六腳村淹水深度","淹水感測器","淹水深度","cm"
"9fc03adc-73b5-4b61-8ae6-aae4d62eedbf","CYC065 六腳鄉豐美村","水利署（與縣市政府合建）","嘉義縣政府水利處","3765000FLCYC065","豐美村123號對面","120.28731","23.52967","a620045f-75a0-4174-91ae-061e11238ef3","淹水深度","CYC065六腳鄉豐美村淹水深度","CYC065六腳鄉豐美村淹水深度","淹水感測器","淹水深度","cm"
"04876063-d4af-4c14-9258-0e4077756adf","CYC066 六腳鄉港美村新店","水利署（與縣市政府合建）","嘉義縣政府水利處","3765000FLCYC066","港美村12-2號對面","120.29652","23.53287","a701d2ca-e419-4938-94a9-8e464558c3c3","淹水深度","CYC066 六腳鄉港美村新店淹水深度","CYC066 六腳鄉港美村新店淹水深度","淹水感測器","淹水深度","cm"
"09ddaec1-9e1b-4a76-8556-f26119b4ead0","CYC067 六腳鄉六斗村","水利署（與縣市政府合建）","嘉義縣政府水利處","3765000FLCYC067","六斗村1-57號旁","120.3033","23.54142","a8c33131-0a66-46f9-b38e-93091c503005","淹水深度","CYC067 六腳鄉六斗村淹水深度","CYC067 六腳鄉六斗村淹水深度","淹水感測器","淹水深度","cm"
"cf09bfd4-838f-4c60-8698-8d0bbc7a3705","CYC070 六腳鄉潭墘村","水利署（與縣市政府合建）","嘉義縣政府水利處","3765000FLCYC070","潭墘村34-1號旁","120.27771","23.50609","b14e81bb-03fc-4a1b-b93c-481150ed01b7","淹水深度","CYC070 六腳鄉潭墘村淹水深度","CYC070 六腳鄉潭墘村淹水深度","淹水感測器","淹水深度","cm"
"0cf25ba4-3314-40bb-aade-a885d6b72750","六和工廠","水利署（與縣市政府合建）","桃園巿政府水務局(智慧防汛)","3802500FL1217040","","121.22266","24.980427","c864a7f6-2bdd-4abf-a2f3-4dd3178922e1","淹水深度","六和工廠-F02-011-水位","路面淹水站","淹水感測器","淹水深度","cm"
"5d9caca9-b10b-4dc0-a1ab-6fd3f117abb6","太平區太平六街57號","水利署（與縣市政府合建）","台中市政府水利局","3872500FL0245","406臺中市太平區太平六街57號","120.72283","24.120949","7f3866e7-271e-4f0f-a998-03cc80490f16","淹水深度","太平區太平六街57號淹水深度","淹水高度量測(高度0時每1HR回傳>30cm每5MIN回傳<30cm每71MIN回傳)","淹水感測器","淹水深度","cm"
"b20cdfa1-2763-4ae7-b392-3ff2b3f3e3ac","太平區光明路61號","水利署（與縣市政府合建）","台中市政府水利局","3872500FL0179","406臺中市太平區光明路61號","120.73074","24.111338","7ff6cc60-e08f-401c-a7a1-6ed29fd95581","淹水深度","太平區光明路61號淹水深度","淹水高度量測(高度0時每1HR回傳>30cm每5MIN回傳<30cm每25MIN回傳)","淹水感測器","淹水深度","cm"
"0f8a8680-d626-4e16-942f-addba9855a3a","太平區光明里大興三街","水利署（與縣市政府合建）","台中市政府水利局","3872500FL0010","臺中市太平區光明里大興三街75號","120.73091","24.105421","8c69e582-24be-40d1-ad98-94235dfdb5f6","淹水深度","太平區光明里大興三街淹水高度","淹水高度量測(高度0時每1HR回傳>30cm每5MIN回傳<30cm每10MIN回傳)","淹水感測器","淹水深度","cm"
"a6f6eec1-3bf3-4315-93bc-2d1272051f0a","太平區中平路一段50號","水利署（與縣市政府合建）","台中市政府水利局","3872500FL0266","406臺中市太平區中平路一段50號","120.719406","24.131504","950f8129-f6e1-41cc-a023-b2a45f78d703","淹水深度","太平區中平路一段50號淹水深度","淹水高度量測(高度0時每1HR回傳>30cm每5MIN回傳<30cm每92MIN回傳)","淹水感測器","淹水深度","cm"
"942de797-296d-4252-9086-c75784c48a1b","太平區大興三街83巷8號","水利署（與縣市政府合建）","台中市政府水利局","3872500FL0125","406臺中市太平區大興三街83巷8號","120.730644","24.153278","a368c8bb-3d76-44b5-b736-cd460a83648d","淹水深度","太平區大興三街83巷8號淹水深度","淹水高度量測(高度0時每1HR回傳>30cm每5MIN回傳<30cm每16MIN回傳)","淹水感測器","淹水深度","cm"
"cc69035a-06ea-4292-95e1-cd72ff11356f","太平區中山路一段215南巷58號","水利署（與縣市政府合建）","台中市政府水利局","3872500FL0263","406臺中市太平區中山路一段215南巷58號","120.730705","24.143066","a3dacd04-c53f-4f3e-be75-28a43960b2c1","淹水深度","太平區中山路一段215南巷58號淹水深度","淹水高度量測(高度0時每1HR回傳>30cm每5MIN回傳<30cm每89MIN回傳)","淹水感測器","淹水深度","cm"
"0bf40372-20f8-4499-a404-0a60e7a36abb","太平區正光街197巷23號","水利署（與縣市政府合建）","台中市政府水利局","3872500FL0292","406臺中市太平區正光街197巷23號","120.73373","24.106998","a95fcde6-6c99-464e-a300-84ff0a122f1e","淹水深度","太平區正光街197巷23號淹水深度","淹水高度量測(高度0時每1HR回傳>30cm每5MIN回傳<30cm每118MIN回傳)","淹水感測器","淹水深度","cm"
"ce6f5067-5e9a-40cf-8748-522dced4fb17","太平區永富街16號","水利署（與縣市政府合建）","台中市政府水利局","3872500FL0281","406臺中市太平區永富街16號","120.71331","24.118025","ae7eb915-ad01-424c-9265-bf1b9abf56ad","淹水深度","太平區永富街16號淹水深度","淹水高度量測(高度0時每1HR回傳>30cm每5MIN回傳<30cm每107MIN回傳)","淹水感測器","淹水深度","cm"
"eff182ec-14b7-4f42-be14-e50fa1118be2","太平區中和街287號","水利署（與縣市政府合建）","台中市政府水利局","3872500FL0233","406臺中市太平區中和街287號","120.7258","24.13771","dcfaa8eb-cc75-47ce-bd29-597875514d4d","淹水深度","太平區中和街287號淹水深度","淹水高度量測(高度0時每1HR回傳>30cm每5MIN回傳<30cm每59MIN回傳)","淹水感測器","淹水深度","cm"
"7030c3f0-4e3b-4f10-867e-cc316248268c","太平區永富街40號","水利署（與縣市政府合建）","台中市政府水利局","3872500FL0265","406臺中市太平區永富街40號","120.713745","24.118496","e2a61b42-aa02-4421-94bc-d8934c005095","淹水深度","太平區永富街40號淹水深度","淹水高度量測(高度0時每1HR回傳>30cm每5MIN回傳<30cm每91MIN回傳)","淹水感測器","淹水深度","cm"
"314fc57b-418f-4b05-9fe6-b72b79af4a6c","太平區新吉路3號","水利署（與縣市政府合建）","台中市政府水利局","3872500FL0300","406臺中市太平區新吉路3號","120.720695","24.151886","325c9c88-d19f-4dc8-983b-d2885d109abc","淹水深度","太平區新吉路3號淹水深度","淹水高度量測(高度0時每1HR回傳>30cm每5MIN回傳<30cm每126MIN回傳)","淹水感測器","淹水深度","cm"
"f22bac88-b50f-4de5-b061-ca0d1b891d6f","太平區振福路13號","水利署（與縣市政府合建）","台中市政府水利局","3872500FL0137","406臺中市太平區振福路13號","120.70131","24.146057","40c566f5-7433-4ffa-9d4a-1ca3bc01a291","淹水深度","太平區振福路13號淹水深度","淹水高度量測(高度0時每1HR回傳>30cm每5MIN回傳<30cm每25MIN回傳)","淹水感測器","淹水深度","cm"
"9ae6bc74-bce6-492f-a5aa-11d380846caf","太平區振福路12巷路口","水利署（與縣市政府合建）","台中市政府水利局","3872500FL0146","406臺中市太平區振福路12巷路口","120.701935","24.146214","45f7f17f-e87a-4d43-b758-9f5e3ed49e14","淹水深度","太平區振福路12巷路口淹水深度","淹水高度量測(高度0時每1HR回傳>30cm每5MIN回傳<30cm每25MIN回傳)","淹水感測器","淹水深度","cm"
"e6355b2d-b4ba-425a-a561-d2b9477b102d","太平區光興路1050號","水利署（與縣市政府合建）","台中市政府水利局","3872500FL0158","406臺中市太平區太平區光興路1050號","120.73066","24.111757","70d103d7-8efc-4756-9685-4b11eb39b6ce","淹水深度","太平區光興路1050號淹水深度","淹水高度量測(高度0時每1HR回傳>30cm每5MIN回傳<30cm每25MIN回傳)","淹水感測器","淹水深度","cm"
"a289feab-70bc-4d3d-a933-c8fd7aef4297","CYC058 太保市安仁里頂港仔墘","水利署（與縣市政府合建）","嘉義縣政府水利處","3765000FLCYC058","安仁里辦公室附近","120.2955","23.4423","9c9bb824-182e-409b-8fb6-051d537eccdd","淹水深度","CYC058 太保市安仁里頂港仔墘淹水深度","CYC058 太保市安仁里頂港仔墘淹水深度","淹水感測器","淹水深度","cm"
"a077aa61-4c91-4e41-a35e-b0843816c354","太平區興隆路一段41號","水利署（與縣市政府合建）","台中市政府水利局","3872500FL0117","411臺中市太平區興隆路一段41號","120.69609","24.104948","a0665796-1ef1-4689-99e9-74a0b859d3c7","淹水深度","太平區興隆路一段41號淹水深度","淹水高度量測(高度0時每1HR回傳>30cm每5MIN回傳<30cm每10MIN回傳)","淹水感測器","淹水深度","cm"
"018b8f72-90d9-480a-96b4-0c664610428c","CYC060 太保市北新里聖后宮旁","水利署（與縣市政府合建）","嘉義縣政府水利處","3765000FLCYC060","嘉義大排與嘉62交界","120.39863","23.50433","a37e9dbc-779a-4977-913b-c85398e9e39c","淹水深度","CYC060 太保市北新里聖后宮旁淹水深度","CYC060 太保市北新里聖后宮旁淹水深度","淹水感測器","淹水深度","cm"
"4f0f4af3-1124-43c3-90a0-37700b8d3396","太平區光興路91巷47號","水利署（與縣市政府合建）","台中市政府水利局","3872500FL0302","406臺中市太平區光興路91巷47號","120.72805","24.09521","bb739113-c548-421e-ae4e-01a6445020a0","淹水深度","太平區光興路91巷47號淹水深度","淹水高度量測(高度0時每1HR回傳>30cm每5MIN回傳<30cm每128MIN回傳)","淹水感測器","淹水深度","cm"
"9312432f-728e-4157-9487-55027751d631","太平區興隆路55之9號","水利署（與縣市政府合建）","台中市政府水利局","3872500FL0182","406臺中市太平區興隆路55之9號","120.73107","24.112076","ea29b9ef-25f1-47d1-990c-0eafc32f8ae6","淹水深度","太平區興隆路55之9號淹水深度","淹水高度量測(高度0時每1HR回傳>30cm每5MIN回傳<30cm每25MIN回傳)","淹水感測器","淹水深度","cm"
"cd4ecf28-4458-47f3-9a54-35cdb4b98c1f","太平區長龍路一段(一江橋)","水利署（與縣市政府合建）","台中市政府水利局","3872500FL0288","411臺中市太平區太平區長龍路一段(一江橋)","120.73787","24.131456","ee574503-a054-4d1c-9aaf-b2726037672d","淹水深度","太平區長龍路一段(一江橋)淹水深度","淹水高度量測(高度0時每1HR回傳>30cm每5MIN回傳<30cm每114MIN回傳)","淹水感測器","淹水深度","cm"
"123b1f3e-31e8-47bd-b31a-c8efa99195eb","文化一路6號","水利署（與縣市政府合建）","桃園巿政府水務局(智慧防汛)","3802500FL1217100","","121.37636","25.054901","87a5783a-902c-4f48-a76d-a14edc1dd443","淹水深度","文化一路6號-F07-001-水位","路面淹水站","淹水感測器","淹水深度","cm"
"65387ad9-80e4-43f5-9e05-f1a231794d7d","文化二路21號","水利署（與縣市政府合建）","桃園巿政府水務局(智慧防汛)","3802500FL1217102","","121.36651","25.057547","982dd370-1c1c-4f4f-8fb3-6558134e9104","淹水深度","文化二路21號-F07-003-水位","路面淹水站","淹水感測器","淹水深度","cm"
"22e4afda-d681-4023-82b7-674d7eaa3abe","文寧街","水利署（與縣市政府合建）","高雄市政府水利局","3972500RV1062","文寧街","120.30188","22.67994","bd270e0c-d831-488a-9537-dce55560fd1f","淹水深度","文寧街","文寧街","淹水感測器","淹水深度","cm"
"c1aa4e38-0da4-4832-a16c-7de1096b0ffc","文化二路138號","水利署（與縣市政府合建）","桃園巿政府水務局(智慧防汛)","3802500FL1217103","","121.37036","25.053535","c33ac3b4-4557-466a-9f74-8842bd9263fd","淹水深度","文化二路138號-F07-004-水位","路面淹水站","淹水感測器","淹水深度","cm"
"aaae9565-0a9c-4cfc-a6fa-d2fbd2976629","月眉村_78快速道路橋下","水利署（與縣市政府合建）","雲林縣政府水利處","3764900FL109YL37","雲林縣東勢鄉，埔姜崙分線","120.295944","23.687624","6b12ddba-0b8d-4e9c-9f83-20863c35aca0","淹水深度","月眉村_78快速道路橋下_淹水深度","定點量測路面淹水深度","淹水感測器","淹水深度","cm"
"319e5c1a-0e7f-42e7-b0e4-11fc87ab0908","日光橋-路面淹水","水利署（與縣市政府合建）","臺東縣政府水利科","3765400FLO0001","臺東縣臺東市連航路150","121.1239","22.7736","7787f37e-fe27-43c0-852a-f943503efea3","淹水深度","日光大橋路面淹水","監測日光大橋的路面淹水狀況","淹水感測器","淹水深度","cm"
"c67d6057-35ce-4553-94ad-9e5d88325db7","CYC050 水上鄉柳林村","水利署（與縣市政府合建）","嘉義縣政府水利處","3765000FLCYC050","柳子林鄉道","120.40816","23.42546","8282d24e-b086-4fe5-a463-c39626281c12","淹水深度","CYC050 水上鄉柳林村淹水深度","CYC050 水上鄉柳林村淹水深度","淹水感測器","淹水深度","cm"
"aaae9565-0a9c-4cfc-a6fa-d2fbd2976629","月眉村_78快速道路橋下","水利署（與縣市政府合建）","雲林縣政府水利處","3764900FL109YL37","雲林縣東勢鄉，埔姜崙分線","120.295944","23.687624","8a0cc7de-608b-4ca4-be86-c2ad98a09e0c","直流電壓","月眉村_78快速道路橋下_電池電壓","記錄傳輸紀錄器充電電壓","淹水感測器","電力","V"
"dfcf5cb2-0b63-42db-a1f5-2cf46624b646","CYC062 水上鄉溪州村","水利署（與縣市政府合建）","嘉義縣政府水利處","3765000FLCYC062","外溪洲549號附近","120.39273","23.419737","a3dd30cd-80ef-43f4-9225-ccae7352bf0c","淹水深度","CYC062 水上鄉溪州村淹水深度","CYC062 水上鄉溪州村淹水深度","淹水感測器","淹水深度","cm"
"e692ea79-c4ef-4d24-ba47-16cd61c544fd","CYC074 水上鄉義興村(Cat-M1)_鎮北宮附近","水利署（與縣市政府合建）","嘉義縣政府水利處","3765000FLCYC074","嘉義液化石油氣分裝場公司旁","120.41601","23.41073","bc4ed0c0-298c-4a78-9043-7114c1713221","淹水深度","CYC074 水上鄉義興村(Cat-M1)_鎮北宮附近淹水深度","CYC074 水上鄉義興村(Cat-M1)_鎮北宮附近淹水深度","淹水感測器","淹水深度","cm"
"483c0ad0-5fff-4793-bb7c-6ce4117de073","水尾村_村落","水利署（與縣市政府合建）","雲林縣政府水利處","3764900FL109YL47","雲林縣崙背鄉，草湖分線","120.34823","23.784014","77c485fc-68fd-4366-9212-15abf5d438c8","淹水深度","水尾村_村落_淹水深度","定點量測路面淹水深度","淹水感測器","淹水深度","cm"
"483c0ad0-5fff-4793-bb7c-6ce4117de073","水尾村_村落","水利署（與縣市政府合建）","雲林縣政府水利處","3764900FL109YL47","雲林縣崙背鄉，草湖分線","120.34823","23.784014","7c4fbdae-d0bf-45dc-9fe9-d35a8572715f","傳輸訊號強度","水尾村_村落_訊號強度","記錄傳輸紀錄器通訊訊號強度","淹水感測器","其他","dBm"
"536ae982-0464-4526-887e-7a5deb80b475","水尾村_雲15縣道","水利署（與縣市政府合建）","雲林縣政府水利處","3764900FL109YL46","雲林縣崙背鄉，草湖分線","120.34951","23.78575","94d1c6b7-e71b-4eec-879e-f032752beb56","傳輸訊號強度","水尾村_雲15縣道_訊號強度","記錄傳輸紀錄器通訊訊號強度","淹水感測器","其他","dBm"
"483c0ad0-5fff-4793-bb7c-6ce4117de073","水尾村_村落","水利署（與縣市政府合建）","雲林縣政府水利處","3764900FL109YL47","雲林縣崙背鄉，草湖分線","120.34823","23.784014","af575909-2cbc-4d97-84c6-19b1aa494f19","直流電壓","水尾村_村落_電池電壓","記錄傳輸紀錄器充電電壓","淹水感測器","電力","V"
"536ae982-0464-4526-887e-7a5deb80b475","水尾村_雲15縣道","水利署（與縣市政府合建）","雲林縣政府水利處","3764900FL109YL46","雲林縣崙背鄉，草湖分線","120.34951","23.78575","bb010688-bc4f-435b-af66-50bf17942d32","淹水深度","水尾村_雲15縣道_淹水深度","定點量測路面淹水深度","淹水感測器","淹水深度","cm"
"536ae982-0464-4526-887e-7a5deb80b475","水尾村_雲15縣道","水利署（與縣市政府合建）","雲林縣政府水利處","3764900FL109YL46","雲林縣崙背鄉，草湖分線","120.34951","23.78575","d7fa6874-3e93-4fa7-afe4-9d81844e3f56","直流電壓","水尾村_雲15縣道_電池電壓","記錄傳輸紀錄器充電電壓","淹水感測器","電力","V"
"ab3c9c87-0020-460b-b95c-6a9466eb30a7","水底寮加油站","水利署（與縣市政府合建）","屏東縣政府水利處","3765300FL2021017","屏東縣枋寮鄉中正大路662號","120.6016","22.37456","f4a544db-3648-498e-8760-9de73f055912","淹水深度","水底寮_淹水深度cm","監測淹水情況","淹水感測器","淹水深度","cm"
"0ef03133-5667-456d-8d64-12c35b5186b4","王功村2","水利署（與縣市政府合建）","彰化縣政府水資處","3764700FL0019014","528彰化縣芳苑鄉新復巷新寶段4號","120.342964","23.966873","65c8d37f-e985-4069-87a9-878e3ab66540","淹水深度","王功村2淹水高度","淹水高度量測(高度0時每1HR回傳>5cm每5MIN回傳<10cm每10MIN回傳)","淹水感測器","淹水深度","cm"
"5c11dda9-1331-4157-8cdc-b5a94c72a9af","牛厝村_村落","水利署（與縣市政府合建）","雲林縣政府水利處","3764900FL109YL57","雲林縣臺西鄉，埔姜崙分線","120.20719","23.666878","9f19c636-33c5-412c-80ca-519ae9e3b23d","淹水深度","牛厝村_村落_淹水深度","定點量測路面淹水深度","淹水感測器","淹水深度","cm"
"2f344158-7afa-452d-b7d4-e2cc3adb24f3","王功國小","水利署（與縣市政府合建）","彰化縣政府水資處","3764700FL1110027","彰化市芳苑鄉王功村王功國小","120.34233","23.96526","cf1247e5-58a4-41fa-9072-05dcc0f932d6","淹水深度","王功國小淹水高度淹水深度","淹水高度量測(高度0時每1HR回傳>30cm每5MIN回傳<30cm每10MIN回傳)","淹水感測器","淹水深度","cm"
"b44bd66a-a62e-4f50-9061-ec2dbb1637e7","北屯區東山路一段219-5號","水利署（與縣市政府合建）","台中市政府水利局","3872500FL0299","406臺中市北屯區東山路一段219-5號","120.71442","24.173843","192edb68-efd1-4729-9c2b-3a4dd4e2451c","淹水深度","北屯區東山路一段219-5號淹水深度","淹水高度量測(高度0時每1HR回傳>30cm每5MIN回傳<30cm每125MIN回傳)","淹水感測器","淹水深度","cm"
"e8e231d9-212e-4427-9d19-306b34e1a5e5","世聯倉儲","水利署（與縣市政府合建）","桃園巿政府水務局(智慧防汛)","3802500FL1217094","","121.275055","25.054039","332deb50-ab0a-4e68-9734-9b71b980e827","淹水深度","世聯倉儲-F05-006-水位","路面淹水站","淹水感測器","淹水深度","cm"
"fbf04746-02c8-420a-a5d4-df47e21c7030","北屯區太原路三段352巷","水利署（與縣市政府合建）","台中市政府水利局","3872500FL0293","406臺中市北屯區太原路三段352巷","120.693565","24.164371","69343149-c2a6-4133-876b-4ce216181da9","淹水深度","北屯區太原路三段352巷淹水深度","淹水高度量測(高度0時每1HR回傳>30cm每5MIN回傳<30cm每119MIN回傳)","淹水感測器","淹水深度","cm"
"4d361649-a5a2-4b5c-9390-c6f41f1cf7e0","北屯區松安街123號","水利署（與縣市政府合建）","台中市政府水利局","3872500FL0102","406臺中市北屯區松安街123號","120.696175","24.181229","8a340719-f6ab-4136-9d54-b255a9c08f81","淹水深度","北屯區松安街123號淹水深度","淹水高度量測(高度0時每1HR回傳>30cm每5MIN回傳<30cm每10MIN回傳)","淹水感測器","淹水深度","cm"
"2beecfc8-5279-41fb-b886-b12559458119","北屯區太原路三段638號","水利署（與縣市政府合建）","台中市政府水利局","3872500FL0243","406臺中市北屯區太原路三段638號","120.70024","24.164768","c88c2434-d42e-4f29-8ad1-e7126969adaa","淹水深度","北屯區太原路三段638號淹水深度","淹水高度量測(高度0時每1HR回傳>30cm每5MIN回傳<30cm每69MIN回傳)","淹水感測器","淹水深度","cm"
"7dfd72c4-62ca-433f-82c0-6575e3047b70","北屯區東山路一段207巷38弄7號","水利署（與縣市政府合建）","台中市政府水利局","3872500FL0260","406臺中市北屯區東山路一段207巷38弄7號","120.7127","24.1742","f6a959b3-65f6-4474-b8ed-1f3ecd56f8ce","淹水深度","北屯區東山路一段207巷38弄7號淹水深度","淹水高度量測(高度0時每1HR回傳>30cm每5MIN回傳<30cm每86MIN回傳)","淹水感測器","淹水深度","cm"
"f9319981-77bb-4a72-ab8e-e27c330e79dd","加昌路18巷33弄","水利署（與縣市政府合建）","高雄市政府水利局","3972500FL0025","楠梓區加昌路18巷33弄","120.32073","22.725803","fe53a5f5-35af-4ffc-a5d2-3bb667fd9959","淹水深度","加昌路18巷33弄_淹水感測器","路面淹水水深量測，作為積淹水警戒","淹水感測器","淹水深度","cm"
"3a057f74-669e-4ec0-8e75-34fab36e4199","北屯區東山路一段33巷與東山路一段交叉口","水利署（與縣市政府合建）","台中市政府水利局","3872500FL0095","406台中市北屯區東光里東山路一段33巷與東山路一段交叉口","120.69881","24.170412","2972c083-dd0e-471f-b7ac-f23ddaff6b7e","淹水深度","北屯區東山路一段33巷與東山路一段交叉口淹水高度","淹水高度量測(高度0時每1HR回傳>30cm每5MIN回傳<30cm每25MIN回傳)","淹水感測器","淹水深度","cm"
"f782e2ed-0411-49d4-a644-628099449f3f","北昌街與惠昌街口","水利署（與縣市政府合建）","高雄市政府水利局","3972500FL0024","楠梓區北昌街與惠昌街口","120.28179","22.719631","5087c750-e45c-4534-837c-a43527c6045f","淹水深度","北昌街與惠昌街口_淹水感測器","路面淹水水深量測，作為積淹水警戒","淹水感測器","淹水深度","cm"
"78c6f2b2-2cd2-4787-8069-54e695ca230f","北屯區軍功路二段196號","水利署（與縣市政府合建）","台中市政府水利局","3872500FL0104","406臺中市北屯區軍功路二段196號","120.71973","24.180082","53a6c11e-110c-4d36-8b51-8c155f9aaffc","淹水深度","北屯區軍功路二段196號淹水深度","淹水高度量測(高度0時每1HR回傳>30cm每5MIN回傳<30cm每10MIN回傳)","淹水感測器","淹水深度","cm"
